{
  "-KlaQv3dVZ8IlKH-HZLu" : {
    "cityID" : "-KlaQv3dVZ8IlKH-HZLu",
    "countryID" : "-KTyxBZ1_tV4asRFzpy1",
    "date" : 0,
    "latitude" : -31.553917,
    "longitude" : 28.210587,
    "name" : "Gqaka",
    "provinceName" : "Eastern Cape"
  },
  "-KlaQv3lrf5mWvZS-C9e" : {
    "cityID" : "-KlaQv3lrf5mWvZS-C9e",
    "countryID" : "-KTyxBZ1_tV4asRFzpy1",
    "date" : 0,
    "latitude" : -31.275246,
    "longitude" : 28.422504,
    "name" : "Gqaqala",
    "provinceName" : "Eastern Cape"
  },
  "-KlaQv3qx0CZpYxwHrFH" : {
    "cityID" : "-KlaQv3qx0CZpYxwHrFH",
    "countryID" : "-KTyxBZ1_tV4asRFzpy1",
    "date" : 0,
    "latitude" : -32.293342,
    "longitude" : 28.686302,
    "name" : "Gqiba",
    "provinceName" : "Eastern Cape"
  },
  "-KlaQv3wDlHBXTqYgEV8" : {
    "cityID" : "-KlaQv3wDlHBXTqYgEV8",
    "countryID" : "-KTyxBZ1_tV4asRFzpy1",
    "date" : 0,
    "latitude" : -31.623649,
    "longitude" : 28.255605,
    "name" : "Gqobonco",
    "provinceName" : "Eastern Cape"
  },
  "-KlaQv41Bb3Om9JuOTqv" : {
    "cityID" : "-KlaQv41Bb3Om9JuOTqv",
    "countryID" : "-KTyxBZ1_tV4asRFzpy1",
    "date" : 0,
    "latitude" : -31.466667,
    "longitude" : 28.533333,
    "name" : "Gqogqora",
    "provinceName" : "Eastern Cape"
  },
  "-KlaQv45D_t-QZ8EGh7b" : {
    "cityID" : "-KlaQv45D_t-QZ8EGh7b",
    "countryID" : "-KTyxBZ1_tV4asRFzpy1",
    "date" : 0,
    "latitude" : -33.175137,
    "longitude" : 27.52234,
    "name" : "Gqola",
    "provinceName" : "Eastern Cape"
  },
  "-KlaQv4AQLz-dQSaVLQp" : {
    "cityID" : "-KlaQv4AQLz-dQSaVLQp",
    "countryID" : "-KTyxBZ1_tV4asRFzpy1",
    "date" : 0,
    "latitude" : -30.881152,
    "longitude" : 28.845627,
    "name" : "Gqoloma",
    "provinceName" : "Eastern Cape"
  },
  "-KlaQv4EL21HW4gv-5dF" : {
    "cityID" : "-KlaQv4EL21HW4gv-5dF",
    "countryID" : "-KTyxBZ1_tV4asRFzpy1",
    "date" : 0,
    "latitude" : -33.116667,
    "longitude" : 27.05,
    "name" : "Gqora",
    "provinceName" : "Eastern Cape"
  },
  "-KlaQv4J7GdA21-XlZMQ" : {
    "cityID" : "-KlaQv4J7GdA21-XlZMQ",
    "countryID" : "-KTyxBZ1_tV4asRFzpy1",
    "date" : 0,
    "latitude" : -31.886576,
    "longitude" : 29.055966,
    "name" : "Gqubeni",
    "provinceName" : "Eastern Cape"
  },
  "-KlaQv4NUkP1g3UxeDcc" : {
    "cityID" : "-KlaQv4NUkP1g3UxeDcc",
    "countryID" : "-KTyxBZ1_tV4asRFzpy1",
    "date" : 0,
    "latitude" : -31.616963,
    "longitude" : 28.193974,
    "name" : "Gqubonco",
    "provinceName" : "Eastern Cape"
  },
  "-KlaQv4Rr3_2heVWSxAA" : {
    "cityID" : "-KlaQv4Rr3_2heVWSxAA",
    "countryID" : "-KTyxBZ1_tV4asRFzpy1",
    "date" : 0,
    "latitude" : -31.019779,
    "longitude" : 28.604282,
    "name" : "Gqukangqa",
    "provinceName" : "Eastern Cape"
  },
  "-KlaQv4U3Bo_sHYo6s7q" : {
    "cityID" : "-KlaQv4U3Bo_sHYo6s7q",
    "countryID" : "-KTyxBZ1_tV4asRFzpy1",
    "date" : 0,
    "latitude" : -31.019779,
    "longitude" : 28.604282,
    "name" : "Gqukungqa",
    "provinceName" : "Eastern Cape"
  },
  "-KlaQv4XXXsmZ6NqNNGT" : {
    "cityID" : "-KlaQv4XXXsmZ6NqNNGT",
    "countryID" : "-KTyxBZ1_tV4asRFzpy1",
    "date" : 0,
    "latitude" : -31.019779,
    "longitude" : 28.604282,
    "name" : "Gqukunqa",
    "provinceName" : "Eastern Cape"
  },
  "-KlaQv4ZIRnFtpdXy8wQ" : {
    "cityID" : "-KlaQv4ZIRnFtpdXy8wQ",
    "countryID" : "-KTyxBZ1_tV4asRFzpy1",
    "date" : 0,
    "latitude" : -32.295741,
    "longitude" : 28.379101,
    "name" : "Gqunce",
    "provinceName" : "Eastern Cape"
  },
  "-KlaQv4aneAnoJ_O6fQf" : {
    "cityID" : "-KlaQv4aneAnoJ_O6fQf",
    "countryID" : "-KTyxBZ1_tV4asRFzpy1",
    "date" : 0,
    "latitude" : -32.450818,
    "longitude" : 28.53111,
    "name" : "Gqunge",
    "provinceName" : "Eastern Cape"
  },
  "-KlaQv4dtg1NL0FKZrpX" : {
    "cityID" : "-KlaQv4dtg1NL0FKZrpX",
    "countryID" : "-KTyxBZ1_tV4asRFzpy1",
    "date" : 0,
    "latitude" : -32.466667,
    "longitude" : 28.55,
    "name" : "Gqunge Trading Store",
    "provinceName" : "Eastern Cape"
  },
  "-KlaQv4fiEtvTW2BmD-h" : {
    "cityID" : "-KlaQv4fiEtvTW2BmD-h",
    "countryID" : "-KTyxBZ1_tV4asRFzpy1",
    "date" : 0,
    "latitude" : -32.45,
    "longitude" : 28.45,
    "name" : "Gqunqe",
    "provinceName" : "Eastern Cape"
  },
  "-KlaQv4hDBLxIBtDjNaU" : {
    "cityID" : "-KlaQv4hDBLxIBtDjNaU",
    "countryID" : "-KTyxBZ1_tV4asRFzpy1",
    "date" : 0,
    "latitude" : -31.626616,
    "longitude" : 27.881495,
    "name" : "Gqutyini",
    "provinceName" : "Eastern Cape"
  },
  "-KlaQv4k5c_T6pSKV7by" : {
    "cityID" : "-KlaQv4k5c_T6pSKV7by",
    "countryID" : "-KTyxBZ1_tV4asRFzpy1",
    "date" : 0,
    "latitude" : -30.8943,
    "longitude" : 28.742831,
    "name" : "Gqwesa",
    "provinceName" : "Eastern Cape"
  },
  "-KlaQv4mgNRqgx90IrH4" : {
    "cityID" : "-KlaQv4mgNRqgx90IrH4",
    "countryID" : "-KTyxBZ1_tV4asRFzpy1",
    "date" : 0,
    "latitude" : -24.909926,
    "longitude" : 31.039323,
    "name" : "Gqweta",
    "provinceName" : "Mpumalanga"
  },
  "-KlaQv4ou-vkWirugAGv" : {
    "cityID" : "-KlaQv4ou-vkWirugAGv",
    "countryID" : "-KTyxBZ1_tV4asRFzpy1",
    "date" : 0,
    "latitude" : -32.25,
    "longitude" : 24.55,
    "name" : "Graaff-Reinet",
    "provinceName" : "Eastern Cape"
  },
  "-KlaQv4q2sQoKgerb1R4" : {
    "cityID" : "-KlaQv4q2sQoKgerb1R4",
    "countryID" : "-KTyxBZ1_tV4asRFzpy1",
    "date" : 0,
    "latitude" : -32.25,
    "longitude" : 24.55,
    "name" : "Graaf Reinet",
    "provinceName" : "Eastern Cape"
  },
  "-KlaQv4s_cU1zrpMj6L2" : {
    "cityID" : "-KlaQv4s_cU1zrpMj6L2",
    "countryID" : "-KTyxBZ1_tV4asRFzpy1",
    "date" : 0,
    "latitude" : -32.154656,
    "longitude" : 18.603187,
    "name" : "Graafwater",
    "provinceName" : "Western Cape"
  },
  "-KlaQv4tMdIC7z1pKnLv" : {
    "cityID" : "-KlaQv4tMdIC7z1pKnLv",
    "countryID" : "-KTyxBZ1_tV4asRFzpy1",
    "date" : 0,
    "latitude" : -34.151519,
    "longitude" : 19.015091,
    "name" : "Grabouw",
    "provinceName" : "Western Cape"
  },
  "-KlaQv4vHO4LwdQJIf09" : {
    "cityID" : "-KlaQv4vHO4LwdQJIf09",
    "countryID" : "-KTyxBZ1_tV4asRFzpy1",
    "date" : 0,
    "latitude" : -33.304216,
    "longitude" : 26.53276,
    "name" : "Grahamstad",
    "provinceName" : "Eastern Cape"
  },
  "-KlaQv4x7PUZx4QqFLkN" : {
    "cityID" : "-KlaQv4x7PUZx4QqFLkN",
    "countryID" : "-KTyxBZ1_tV4asRFzpy1",
    "date" : 0,
    "latitude" : -33.304216,
    "longitude" : 26.53276,
    "name" : "Grahamstown",
    "provinceName" : "Eastern Cape"
  },
  "-KlaQv4ymjLAbQE0aEJo" : {
    "cityID" : "-KlaQv4ymjLAbQE0aEJo",
    "countryID" : "-KTyxBZ1_tV4asRFzpy1",
    "date" : 0,
    "latitude" : -25.766667,
    "longitude" : 28.85,
    "name" : "Graley",
    "provinceName" : "Gauteng"
  },
  "-KlaQv4z6koBHQVCnN-G" : {
    "cityID" : "-KlaQv4z6koBHQVCnN-G",
    "countryID" : "-KTyxBZ1_tV4asRFzpy1",
    "date" : 0,
    "latitude" : -28.765959,
    "longitude" : 31.899037,
    "name" : "Grantham Park",
    "provinceName" : "KwaZulu Natal"
  },
  "-KlaQv50e3jXKmQONurq" : {
    "cityID" : "-KlaQv50e3jXKmQONurq",
    "countryID" : "-KTyxBZ1_tV4asRFzpy1",
    "date" : 0,
    "latitude" : -27.057882,
    "longitude" : 23.430365,
    "name" : "Grantion",
    "provinceName" : "North West"
  },
  "-KlaQv51-j-jvREikfa-" : {
    "cityID" : "-KlaQv51-j-jvREikfa-",
    "countryID" : "-KTyxBZ1_tV4asRFzpy1",
    "date" : 0,
    "latitude" : -28.85,
    "longitude" : 29.633333,
    "name" : "Grantleigh",
    "provinceName" : "KwaZulu Natal"
  },
  "-KlaQv52EtAM1rimhOvW" : {
    "cityID" : "-KlaQv52EtAM1rimhOvW",
    "countryID" : "-KTyxBZ1_tV4asRFzpy1",
    "date" : 0,
    "latitude" : -25.857579,
    "longitude" : 25.695491,
    "name" : "Grantleigh",
    "provinceName" : "North West"
  },
  "-KlaQv539p_qu8GZ76G1" : {
    "cityID" : "-KlaQv539p_qu8GZ76G1",
    "countryID" : "-KTyxBZ1_tV4asRFzpy1",
    "date" : 0,
    "latitude" : -29.64894,
    "longitude" : 22.229218,
    "name" : "Grasbult",
    "provinceName" : "Northern Cape"
  },
  "-KlaQv55XLI85lxv9vOD" : {
    "cityID" : "-KlaQv55XLI85lxv9vOD",
    "countryID" : "-KTyxBZ1_tV4asRFzpy1",
    "date" : 0,
    "latitude" : -24.931442,
    "longitude" : 30.841908,
    "name" : "Graskop",
    "provinceName" : "Mpumalanga"
  },
  "-KlaQv57z6_bXlzz52kY" : {
    "cityID" : "-KlaQv57z6_bXlzz52kY",
    "countryID" : "-KTyxBZ1_tV4asRFzpy1",
    "date" : 0,
    "latitude" : -26.427497,
    "longitude" : 27.86023,
    "name" : "Grasmere",
    "provinceName" : "Gauteng"
  },
  "-KlaQv58J8M9Dz9GUiYe" : {
    "cityID" : "-KlaQv58J8M9Dz9GUiYe",
    "countryID" : "-KTyxBZ1_tV4asRFzpy1",
    "date" : 0,
    "latitude" : -30.106538,
    "longitude" : 22.485489,
    "name" : "Graspan",
    "provinceName" : "Northern Cape"
  },
  "-KlaQv593ZUwAkkOQ6JB" : {
    "cityID" : "-KlaQv593ZUwAkkOQ6JB",
    "countryID" : "-KTyxBZ1_tV4asRFzpy1",
    "date" : 0,
    "latitude" : -27.613558,
    "longitude" : 23.887684,
    "name" : "Grasrug",
    "provinceName" : "Northern Cape"
  },
  "-KlaQv5Bb-Z8X9TECKij" : {
    "cityID" : "-KlaQv5Bb-Z8X9TECKij",
    "countryID" : "-KTyxBZ1_tV4asRFzpy1",
    "date" : 0,
    "latitude" : -31.398824,
    "longitude" : 26.510452,
    "name" : "Grassdale",
    "provinceName" : "Eastern Cape"
  },
  "-KlaQv5CTZYedHqEGqNZ" : {
    "cityID" : "-KlaQv5CTZYedHqEGqNZ",
    "countryID" : "-KTyxBZ1_tV4asRFzpy1",
    "date" : 0,
    "latitude" : -29.155451,
    "longitude" : 26.288537,
    "name" : "Grasslands",
    "provinceName" : "Free State"
  },
  "-KlaQv5Ee7yFgUKAWEcq" : {
    "cityID" : "-KlaQv5Ee7yFgUKAWEcq",
    "countryID" : "-KTyxBZ1_tV4asRFzpy1",
    "date" : 0,
    "latitude" : -31.327672,
    "longitude" : 26.306253,
    "name" : "Grasslands",
    "provinceName" : "Eastern Cape"
  },
  "-KlaQv5FIuZF38P2K-EZ" : {
    "cityID" : "-KlaQv5FIuZF38P2K-EZ",
    "countryID" : "-KTyxBZ1_tV4asRFzpy1",
    "date" : 0,
    "latitude" : -29.92664,
    "longitude" : 22.191315,
    "name" : "Grassmoor",
    "provinceName" : "Northern Cape"
  },
  "-KlaQv5HpeiiVV9XKl3K" : {
    "cityID" : "-KlaQv5HpeiiVV9XKl3K",
    "countryID" : "-KTyxBZ1_tV4asRFzpy1",
    "date" : 0,
    "latitude" : -31.785588,
    "longitude" : 25.452898,
    "name" : "Grassridge",
    "provinceName" : "Eastern Cape"
  },
  "-KlaQv5JxBj1pxIv-v4L" : {
    "cityID" : "-KlaQv5JxBj1pxIv-v4L",
    "countryID" : "-KTyxBZ1_tV4asRFzpy1",
    "date" : 0,
    "latitude" : -24.679431,
    "longitude" : 29.333148,
    "name" : "Grassvallei",
    "provinceName" : "Limpopo"
  },
  "-KlaQv5Kc7RwEeSPlZd2" : {
    "cityID" : "-KlaQv5Kc7RwEeSPlZd2",
    "countryID" : "-KTyxBZ1_tV4asRFzpy1",
    "date" : 0,
    "latitude" : -24.679431,
    "longitude" : 29.333148,
    "name" : "Grass Valley",
    "provinceName" : "Limpopo"
  },
  "-KlaQv5LOMXuUF_cyL45" : {
    "cityID" : "-KlaQv5LOMXuUF_cyL45",
    "countryID" : "-KTyxBZ1_tV4asRFzpy1",
    "date" : 0,
    "latitude" : -29.155451,
    "longitude" : 26.288537,
    "name" : "Grassville",
    "provinceName" : "Free State"
  },
  "-KlaQv5NhG3iQp_Mr_Dr" : {
    "cityID" : "-KlaQv5NhG3iQp_Mr_Dr",
    "countryID" : "-KTyxBZ1_tV4asRFzpy1",
    "date" : 0,
    "latitude" : -34.047195,
    "longitude" : 18.498626,
    "name" : "Grassy Park",
    "provinceName" : "Western Cape"
  },
  "-KlaQv5OClMC9KrFQlnQ" : {
    "cityID" : "-KlaQv5OClMC9KrFQlnQ",
    "countryID" : "-KTyxBZ1_tV4asRFzpy1",
    "date" : 0,
    "latitude" : -23.953075,
    "longitude" : 30.618951,
    "name" : "Gravelotte",
    "provinceName" : "Limpopo"
  },
  "-KlaQv5PFV1k8uHz5-wJ" : {
    "cityID" : "-KlaQv5PFV1k8uHz5-wJ",
    "countryID" : "-KTyxBZ1_tV4asRFzpy1",
    "date" : 0,
    "latitude" : -26.9,
    "longitude" : 23.616667,
    "name" : "Grayfield",
    "provinceName" : "North West"
  },
  "-KlaQv5RuKEBw-fZpB1j" : {
    "cityID" : "-KlaQv5RuKEBw-fZpB1j",
    "countryID" : "-KTyxBZ1_tV4asRFzpy1",
    "date" : 0,
    "latitude" : -34.043679,
    "longitude" : 22.225741,
    "name" : "Great Brak River",
    "provinceName" : "Western Cape"
  },
  "-KlaQv5SSi_32IAB1SFy" : {
    "cityID" : "-KlaQv5SSi_32IAB1SFy",
    "countryID" : "-KTyxBZ1_tV4asRFzpy1",
    "date" : 0,
    "latitude" : -33.033298,
    "longitude" : 27.862158,
    "name" : "Greenfields",
    "provinceName" : "Eastern Cape"
  },
  "-KlaQv5U5a5XmDG-pZBU" : {
    "cityID" : "-KlaQv5U5a5XmDG-pZBU",
    "countryID" : "-KTyxBZ1_tV4asRFzpy1",
    "date" : 0,
    "latitude" : -31.416667,
    "longitude" : 25.9,
    "name" : "Greenfontein",
    "provinceName" : "Eastern Cape"
  },
  "-KlaQv5Wq9Rm5bHXvCsO" : {
    "cityID" : "-KlaQv5Wq9Rm5bHXvCsO",
    "countryID" : "-KTyxBZ1_tV4asRFzpy1",
    "date" : 0,
    "latitude" : -34.040869,
    "longitude" : 22.209714,
    "name" : "Greenhaven",
    "provinceName" : "Western Cape"
  },
  "-KlaQv5XHzpVpR7xQYzv" : {
    "cityID" : "-KlaQv5XHzpVpR7xQYzv",
    "countryID" : "-KTyxBZ1_tV4asRFzpy1",
    "date" : 0,
    "latitude" : -29.827099,
    "longitude" : 30.306303,
    "name" : "Greenhill",
    "provinceName" : "KwaZulu Natal"
  },
  "-KlaQv5YwRLVwUje3xj3" : {
    "cityID" : "-KlaQv5YwRLVwUje3xj3",
    "countryID" : "-KTyxBZ1_tV4asRFzpy1",
    "date" : 0,
    "latitude" : -28.616667,
    "longitude" : 16.483333,
    "name" : "Green Island",
    "provinceName" : "Northern Cape"
  },
  "-KlaQv5ZiisJKHnPQlvD" : {
    "cityID" : "-KlaQv5ZiisJKHnPQlvD",
    "countryID" : "-KTyxBZ1_tV4asRFzpy1",
    "date" : 0,
    "latitude" : -33.083333,
    "longitude" : 26.766667,
    "name" : "Greenlands",
    "provinceName" : "Eastern Cape"
  },
  "-KlaQv5ayoAb9AVYg9dP" : {
    "cityID" : "-KlaQv5ayoAb9AVYg9dP",
    "countryID" : "-KTyxBZ1_tV4asRFzpy1",
    "date" : 0,
    "latitude" : -33.910012,
    "longitude" : 18.403859,
    "name" : "Green Point",
    "provinceName" : "Western Cape"
  },
  "-KlaQv5byWpiskImJ2qD" : {
    "cityID" : "-KlaQv5byWpiskImJ2qD",
    "countryID" : "-KTyxBZ1_tV4asRFzpy1",
    "date" : 0,
    "latitude" : -24.598522,
    "longitude" : 31.021159,
    "name" : "Green Valley",
    "provinceName" : "Mpumalanga"
  },
  "-KlaQv5dvNDM7Z76X7RV" : {
    "cityID" : "-KlaQv5dvNDM7Z76X7RV",
    "countryID" : "-KTyxBZ1_tV4asRFzpy1",
    "date" : 0,
    "latitude" : -25.731389,
    "longitude" : 28.397778,
    "name" : "Greenview",
    "provinceName" : "Gauteng"
  },
  "-KlaQv5eHvox1JwHx1MJ" : {
    "cityID" : "-KlaQv5eHvox1JwHx1MJ",
    "countryID" : "-KTyxBZ1_tV4asRFzpy1",
    "date" : 0,
    "latitude" : -26.170523,
    "longitude" : 23.110501,
    "name" : "Greenwich",
    "provinceName" : "North West"
  },
  "-KlaQv5fejx1xazgxvzD" : {
    "cityID" : "-KlaQv5fejx1xazgxvzD",
    "countryID" : "-KTyxBZ1_tV4asRFzpy1",
    "date" : 0,
    "latitude" : -29.783333,
    "longitude" : 31.016667,
    "name" : "Greenwood Park",
    "provinceName" : "KwaZulu Natal"
  },
  "-KlaQv5hbSFnCfMKw67P" : {
    "cityID" : "-KlaQv5hbSFnCfMKw67P",
    "countryID" : "-KTyxBZ1_tV4asRFzpy1",
    "date" : 0,
    "latitude" : -22.644641,
    "longitude" : 28.946264,
    "name" : "Gregory",
    "provinceName" : "Limpopo"
  },
  "-KlaQv5il-33vRkbqcFu" : {
    "cityID" : "-KlaQv5il-33vRkbqcFu",
    "countryID" : "-KTyxBZ1_tV4asRFzpy1",
    "date" : 0,
    "latitude" : -28.133333,
    "longitude" : 23.983333,
    "name" : "Grey Hill",
    "provinceName" : "Northern Cape"
  },
  "-KlaQv5k_6XxdnjuQUUg" : {
    "cityID" : "-KlaQv5k_6XxdnjuQUUg",
    "countryID" : "-KTyxBZ1_tV4asRFzpy1",
    "date" : 0,
    "latitude" : -26.744627,
    "longitude" : 28.744426,
    "name" : "Greylingstad",
    "provinceName" : "Mpumalanga"
  },
  "-KlaQv5mwYw3me0nvsR8" : {
    "cityID" : "-KlaQv5mwYw3me0nvsR8",
    "countryID" : "-KTyxBZ1_tV4asRFzpy1",
    "date" : 0,
    "latitude" : -28.616667,
    "longitude" : 28.816667,
    "name" : "Greys",
    "provinceName" : "Free State"
  },
  "-KlaQv5nBrHUvKoZwK2B" : {
    "cityID" : "-KlaQv5nBrHUvKoZwK2B",
    "countryID" : "-KTyxBZ1_tV4asRFzpy1",
    "date" : 0,
    "latitude" : -31.899608,
    "longitude" : 26.04517,
    "name" : "Greystone",
    "provinceName" : "Eastern Cape"
  },
  "-KlaQv5pd2yM1cXQw4hA" : {
    "cityID" : "-KlaQv5pd2yM1cXQw4hA",
    "countryID" : "-KTyxBZ1_tV4asRFzpy1",
    "date" : 0,
    "latitude" : -29.071943,
    "longitude" : 29.798419,
    "name" : "Greystorie",
    "provinceName" : "KwaZulu Natal"
  },
  "-KlaQv5qyz_w19Jf7PsO" : {
    "cityID" : "-KlaQv5qyz_w19Jf7PsO",
    "countryID" : "-KTyxBZ1_tV4asRFzpy1",
    "date" : 0,
    "latitude" : -34.050482,
    "longitude" : 19.608844,
    "name" : "Greyton",
    "provinceName" : "Western Cape"
  },
  "-KlaQv5s36fhHhLSryuB" : {
    "cityID" : "-KlaQv5s36fhHhLSryuB",
    "countryID" : "-KTyxBZ1_tV4asRFzpy1",
    "date" : 0,
    "latitude" : -29.064155,
    "longitude" : 30.592786,
    "name" : "Greytown",
    "provinceName" : "KwaZulu Natal"
  },
  "-KlaQv5tAJSSVl9PHhmI" : {
    "cityID" : "-KlaQv5tAJSSVl9PHhmI",
    "countryID" : "-KTyxBZ1_tV4asRFzpy1",
    "date" : 0,
    "latitude" : -29.833333,
    "longitude" : 31,
    "name" : "Greyville",
    "provinceName" : "KwaZulu Natal"
  },
  "-KlaQv5ux9qaXDXdiaKr" : {
    "cityID" : "-KlaQv5ux9qaXDXdiaKr",
    "countryID" : "-KTyxBZ1_tV4asRFzpy1",
    "date" : 0,
    "latitude" : -31.483973,
    "longitude" : 28.608894,
    "name" : "Griebdale",
    "provinceName" : "Eastern Cape"
  },
  "-KlaQv5vWAs2qSVD1CS5" : {
    "cityID" : "-KlaQv5vWAs2qSVD1CS5",
    "countryID" : "-KTyxBZ1_tV4asRFzpy1",
    "date" : 0,
    "latitude" : -28.851407,
    "longitude" : 23.252483,
    "name" : "Griekwastad",
    "provinceName" : "Northern Cape"
  },
  "-KlaQv5x7Z2itYRCdJgv" : {
    "cityID" : "-KlaQv5x7Z2itYRCdJgv",
    "countryID" : "-KTyxBZ1_tV4asRFzpy1",
    "date" : 0,
    "latitude" : -28.851407,
    "longitude" : 23.252483,
    "name" : "Griquatown",
    "provinceName" : "Northern Cape"
  },
  "-KlaQv5yMw5OzLs-EOsm" : {
    "cityID" : "-KlaQv5yMw5OzLs-EOsm",
    "countryID" : "-KTyxBZ1_tV4asRFzpy1",
    "date" : 0,
    "latitude" : -22.999394,
    "longitude" : 27.945833,
    "name" : "Groblerbrug",
    "provinceName" : "Limpopo"
  },
  "-KlaQv6-WjFd7QHXZmxk" : {
    "cityID" : "-KlaQv6-WjFd7QHXZmxk",
    "countryID" : "-KTyxBZ1_tV4asRFzpy1",
    "date" : 0,
    "latitude" : -22.999394,
    "longitude" : 27.945833,
    "name" : "Groblersbrug",
    "provinceName" : "Limpopo"
  },
  "-KlaQv60K5GHMxfhD1tw" : {
    "cityID" : "-KlaQv60K5GHMxfhD1tw",
    "countryID" : "-KTyxBZ1_tV4asRFzpy1",
    "date" : 0,
    "latitude" : -25.168434,
    "longitude" : 29.394123,
    "name" : "Groblersdal",
    "provinceName" : "Mpumalanga"
  },
  "-KlaQv62pEi6AzAhXJGw" : {
    "cityID" : "-KlaQv62pEi6AzAhXJGw",
    "countryID" : "-KTyxBZ1_tV4asRFzpy1",
    "date" : 0,
    "latitude" : -28.895309,
    "longitude" : 21.983782,
    "name" : "Groblershoop",
    "provinceName" : "Northern Cape"
  },
  "-KlaQv63x5dZ3AmS0drX" : {
    "cityID" : "-KlaQv63x5dZ3AmS0drX",
    "countryID" : "-KTyxBZ1_tV4asRFzpy1",
    "date" : 0,
    "latitude" : -29.404751,
    "longitude" : 22.417589,
    "name" : "Groendal",
    "provinceName" : "Northern Cape"
  },
  "-KlaQv64oPpE1Tbo8ORu" : {
    "cityID" : "-KlaQv64oPpE1Tbo8ORu",
    "countryID" : "-KTyxBZ1_tV4asRFzpy1",
    "date" : 0,
    "latitude" : -33.892644,
    "longitude" : 19.100525,
    "name" : "Groendal",
    "provinceName" : "Western Cape"
  },
  "-KlaQv65WKfiqOzPRQB8" : {
    "cityID" : "-KlaQv65WKfiqOzPRQB8",
    "countryID" : "-KTyxBZ1_tV4asRFzpy1",
    "date" : 0,
    "latitude" : -28.433253,
    "longitude" : 28.587358,
    "name" : "Groen Draai",
    "provinceName" : "Free State"
  },
  "-KlaQv67bicHyzb_nxUz" : {
    "cityID" : "-KlaQv67bicHyzb_nxUz",
    "countryID" : "-KTyxBZ1_tV4asRFzpy1",
    "date" : 0,
    "latitude" : -31.666667,
    "longitude" : 27.366667,
    "name" : "Groenedal",
    "provinceName" : "Eastern Cape"
  },
  "-KlaQv68fNx8bzGabHUY" : {
    "cityID" : "-KlaQv68fNx8bzGabHUY",
    "countryID" : "-KTyxBZ1_tV4asRFzpy1",
    "date" : 0,
    "latitude" : -30.072403,
    "longitude" : 26.331926,
    "name" : "Groenfontein",
    "provinceName" : "Free State"
  },
  "-KlaQv6A-PEhBsXgIfST" : {
    "cityID" : "-KlaQv6A-PEhBsXgIfST",
    "countryID" : "-KTyxBZ1_tV4asRFzpy1",
    "date" : 0,
    "latitude" : -31.639395,
    "longitude" : 26.133002,
    "name" : "Groenfontein",
    "provinceName" : "Eastern Cape"
  },
  "-KlaQv6BBKMal-rjcyfj" : {
    "cityID" : "-KlaQv6BBKMal-rjcyfj",
    "countryID" : "-KTyxBZ1_tV4asRFzpy1",
    "date" : 0,
    "latitude" : -33.108493,
    "longitude" : 19.347758,
    "name" : "Groenfontein",
    "provinceName" : "Western Cape"
  },
  "-KlaQv6CNYfwbTpfe5yi" : {
    "cityID" : "-KlaQv6CNYfwbTpfe5yi",
    "countryID" : "-KTyxBZ1_tV4asRFzpy1",
    "date" : 0,
    "latitude" : -27.416667,
    "longitude" : 30.283333,
    "name" : "Groenkloof",
    "provinceName" : "KwaZulu Natal"
  },
  "-KlaQv6EO1sDl9Ex8yOL" : {
    "cityID" : "-KlaQv6EO1sDl9Ex8yOL",
    "countryID" : "-KTyxBZ1_tV4asRFzpy1",
    "date" : 0,
    "latitude" : -31.780887,
    "longitude" : 25.509056,
    "name" : "Groenkloof",
    "provinceName" : "Eastern Cape"
  },
  "-KlaQv6GtB_SdONbi5X3" : {
    "cityID" : "-KlaQv6GtB_SdONbi5X3",
    "countryID" : "-KTyxBZ1_tV4asRFzpy1",
    "date" : 0,
    "latitude" : -30.416233,
    "longitude" : 26.689412,
    "name" : "Groenpoort",
    "provinceName" : "Free State"
  },
  "-KlaQv6HUZQgkdDWg_X8" : {
    "cityID" : "-KlaQv6HUZQgkdDWg_X8",
    "countryID" : "-KTyxBZ1_tV4asRFzpy1",
    "date" : 0,
    "latitude" : -26.826341,
    "longitude" : 28.038443,
    "name" : "Groenpunt",
    "provinceName" : "Gauteng"
  },
  "-KlaQv6Il6mLtJpw2kkO" : {
    "cityID" : "-KlaQv6Il6mLtJpw2kkO",
    "countryID" : "-KTyxBZ1_tV4asRFzpy1",
    "date" : 0,
    "latitude" : -33.910012,
    "longitude" : 18.403859,
    "name" : "Groenpunt",
    "provinceName" : "Western Cape"
  },
  "-KlaQv6KUyZCGtRgt2oX" : {
    "cityID" : "-KlaQv6KUyZCGtRgt2oX",
    "countryID" : "-KTyxBZ1_tV4asRFzpy1",
    "date" : 0,
    "latitude" : -30.028035,
    "longitude" : 26.109107,
    "name" : "Groenvlakte",
    "provinceName" : "Free State"
  },
  "-KlaQv6L-PsjXwG5cnAX" : {
    "cityID" : "-KlaQv6L-PsjXwG5cnAX",
    "countryID" : "-KTyxBZ1_tV4asRFzpy1",
    "date" : 0,
    "latitude" : -27.459055,
    "longitude" : 30.23027,
    "name" : "Groenvlei",
    "provinceName" : "KwaZulu Natal"
  },
  "-KlaQv6NRXOeGezvZGXm" : {
    "cityID" : "-KlaQv6NRXOeGezvZGXm",
    "countryID" : "-KTyxBZ1_tV4asRFzpy1",
    "date" : 0,
    "latitude" : -31.021026,
    "longitude" : 26.403782,
    "name" : "Groenvlei",
    "provinceName" : "Eastern Cape"
  },
  "-KlaQv6OJxdGVy78ricy" : {
    "cityID" : "-KlaQv6OJxdGVy78ricy",
    "countryID" : "-KTyxBZ1_tV4asRFzpy1",
    "date" : 0,
    "latitude" : -24.266667,
    "longitude" : 27.483333,
    "name" : "Groenvlei",
    "provinceName" : "Limpopo"
  },
  "-KlaQv6PevME9ZpNZZna" : {
    "cityID" : "-KlaQv6PevME9ZpNZZna",
    "countryID" : "-KTyxBZ1_tV4asRFzpy1",
    "date" : 0,
    "latitude" : -23.866667,
    "longitude" : 28.433333,
    "name" : "Groesbeek",
    "provinceName" : "Limpopo"
  },
  "-KlaQv6R6DuXmefqn84M" : {
    "cityID" : "-KlaQv6R6DuXmefqn84M",
    "countryID" : "-KTyxBZ1_tV4asRFzpy1",
    "date" : 0,
    "latitude" : -30.283333,
    "longitude" : 17.733333,
    "name" : "Grootberg",
    "provinceName" : "Northern Cape"
  },
  "-KlaQv6TCGd00AdYwAXd" : {
    "cityID" : "-KlaQv6TCGd00AdYwAXd",
    "countryID" : "-KTyxBZ1_tV4asRFzpy1",
    "date" : 0,
    "latitude" : -34.043679,
    "longitude" : 22.225741,
    "name" : "Groot-Brakrivier",
    "provinceName" : "Western Cape"
  },
  "-KlaQv6UAJ3w1qJGcHic" : {
    "cityID" : "-KlaQv6UAJ3w1qJGcHic",
    "countryID" : "-KTyxBZ1_tV4asRFzpy1",
    "date" : 0,
    "latitude" : -29.380768,
    "longitude" : 26.920356,
    "name" : "Grootdam",
    "provinceName" : "Free State"
  },
  "-KlaQv6VA_IbF61ue1-B" : {
    "cityID" : "-KlaQv6VA_IbF61ue1-B",
    "countryID" : "-KTyxBZ1_tV4asRFzpy1",
    "date" : 0,
    "latitude" : -31.482609,
    "longitude" : 26.20689,
    "name" : "Grootdam",
    "provinceName" : "Eastern Cape"
  },
  "-KlaQv6WJ6YRP_gAa6Uw" : {
    "cityID" : "-KlaQv6WJ6YRP_gAa6Uw",
    "countryID" : "-KTyxBZ1_tV4asRFzpy1",
    "date" : 0,
    "latitude" : -28.528239,
    "longitude" : 16.61608,
    "name" : "Grootderm",
    "provinceName" : "Northern Cape"
  },
  "-KlaQv6XBF043y5WmM3U" : {
    "cityID" : "-KlaQv6XBF043y5WmM3U",
    "countryID" : "-KTyxBZ1_tV4asRFzpy1",
    "date" : 0,
    "latitude" : -26.05,
    "longitude" : 29.683333,
    "name" : "Groot Drakenstein",
    "provinceName" : "Mpumalanga"
  },
  "-KlaQv6YOiptmH671_4R" : {
    "cityID" : "-KlaQv6YOiptmH671_4R",
    "countryID" : "-KTyxBZ1_tV4asRFzpy1",
    "date" : 0,
    "latitude" : -26.494937,
    "longitude" : 22.278767,
    "name" : "Grootdrink",
    "provinceName" : "Northern Cape"
  },
  "-KlaQv6_jSKT6Wjhwp8k" : {
    "cityID" : "-KlaQv6_jSKT6Wjhwp8k",
    "countryID" : "-KTyxBZ1_tV4asRFzpy1",
    "date" : 0,
    "latitude" : -26.139916,
    "longitude" : 27.6703,
    "name" : "Groot-Elandsvlei",
    "provinceName" : "Gauteng"
  },
  "-KlaQv6aE2H3No3ZlQHk" : {
    "cityID" : "-KlaQv6aE2H3No3ZlQHk",
    "countryID" : "-KTyxBZ1_tV4asRFzpy1",
    "date" : 0,
    "latitude" : -29.63352,
    "longitude" : 26.296903,
    "name" : "Grootfontein",
    "provinceName" : "Free State"
  },
  "-KlaQv6bhng-qM1Uen0N" : {
    "cityID" : "-KlaQv6bhng-qM1Uen0N",
    "countryID" : "-KTyxBZ1_tV4asRFzpy1",
    "date" : 0,
    "latitude" : -33,
    "longitude" : 18.2,
    "name" : "Grootfontein",
    "provinceName" : "Western Cape"
  },
  "-KlaQv6cU78E9pE_ilUh" : {
    "cityID" : "-KlaQv6cU78E9pE_ilUh",
    "countryID" : "-KTyxBZ1_tV4asRFzpy1",
    "date" : 0,
    "latitude" : -29.449312,
    "longitude" : 25.98163,
    "name" : "Grootgeluk",
    "provinceName" : "Free State"
  },
  "-KlaQv6eMC7A12BAQOXv" : {
    "cityID" : "-KlaQv6eMC7A12BAQOXv",
    "countryID" : "-KTyxBZ1_tV4asRFzpy1",
    "date" : 0,
    "latitude" : -26.661048,
    "longitude" : 29.859672,
    "name" : "Grootgewaagd",
    "provinceName" : "Mpumalanga"
  },
  "-KlaQv6fwatN15KVLkds" : {
    "cityID" : "-KlaQv6fwatN15KVLkds",
    "countryID" : "-KTyxBZ1_tV4asRFzpy1",
    "date" : 0,
    "latitude" : -29.85,
    "longitude" : 26.55,
    "name" : "Groot Highlands",
    "provinceName" : "Free State"
  },
  "-KlaQv6gROPiZON0RB8Z" : {
    "cityID" : "-KlaQv6gROPiZON0RB8Z",
    "countryID" : "-KTyxBZ1_tV4asRFzpy1",
    "date" : 0,
    "latitude" : -29.283333,
    "longitude" : 26.866667,
    "name" : "Groothoek",
    "provinceName" : "Free State"
  },
  "-KlaQv6iDYKs3BKXtTiT" : {
    "cityID" : "-KlaQv6iDYKs3BKXtTiT",
    "countryID" : "-KTyxBZ1_tV4asRFzpy1",
    "date" : 0,
    "latitude" : -23.287147,
    "longitude" : 29.317469,
    "name" : "Groothoek",
    "provinceName" : "Limpopo"
  },
  "-KlaQv6jsMrDeog7KXDJ" : {
    "cityID" : "-KlaQv6jsMrDeog7KXDJ",
    "countryID" : "-KTyxBZ1_tV4asRFzpy1",
    "date" : 0,
    "latitude" : -34.42562,
    "longitude" : 21.33995,
    "name" : "Groot-Jongensfontein",
    "provinceName" : "Western Cape"
  },
  "-KlaQv6kv92eg1TOj9nU" : {
    "cityID" : "-KlaQv6kv92eg1TOj9nU",
    "countryID" : "-KTyxBZ1_tV4asRFzpy1",
    "date" : 0,
    "latitude" : -34.42562,
    "longitude" : 21.33995,
    "name" : "Grootjongensfonteinstrand",
    "provinceName" : "Western Cape"
  },
  "-KlaQv6msWQWkTmprpuk" : {
    "cityID" : "-KlaQv6msWQWkTmprpuk",
    "countryID" : "-KTyxBZ1_tV4asRFzpy1",
    "date" : 0,
    "latitude" : -27.416667,
    "longitude" : 30.283333,
    "name" : "Grootkloof",
    "provinceName" : "KwaZulu Natal"
  },
  "-KlaQv6nkTPyowuUBwvv" : {
    "cityID" : "-KlaQv6nkTPyowuUBwvv",
    "countryID" : "-KTyxBZ1_tV4asRFzpy1",
    "date" : 0,
    "latitude" : -25.597005,
    "longitude" : 26.417238,
    "name" : "Groot-Marico",
    "provinceName" : "North West"
  },
  "-KlaQv6oEkHVDZlRj_wa" : {
    "cityID" : "-KlaQv6oEkHVDZlRj_wa",
    "countryID" : "-KTyxBZ1_tV4asRFzpy1",
    "date" : 0,
    "latitude" : -30.516667,
    "longitude" : 18.533333,
    "name" : "Groot Matjiesfontein",
    "provinceName" : "Western Cape"
  },
  "-KlaQv6qnhVSzc1qoshN" : {
    "cityID" : "-KlaQv6qnhVSzc1qoshN",
    "countryID" : "-KTyxBZ1_tV4asRFzpy1",
    "date" : 0,
    "latitude" : -26.74213,
    "longitude" : 20.33376,
    "name" : "Groot Mier",
    "provinceName" : "Northern Cape"
  },
  "-KlaQv6rPw2K2IA_IcAW" : {
    "cityID" : "-KlaQv6rPw2K2IA_IcAW",
    "countryID" : "-KTyxBZ1_tV4asRFzpy1",
    "date" : 0,
    "latitude" : -29.651125,
    "longitude" : 17.084218,
    "name" : "Grootmis",
    "provinceName" : "Northern Cape"
  },
  "-KlaQv6sGSQEUumIWhvm" : {
    "cityID" : "-KlaQv6sGSQEUumIWhvm",
    "countryID" : "-KTyxBZ1_tV4asRFzpy1",
    "date" : 0,
    "latitude" : -29.651125,
    "longitude" : 17.084218,
    "name" : "Grootmist",
    "provinceName" : "Northern Cape"
  },
  "-KlaQv6tXCFKCAgKKDcm" : {
    "cityID" : "-KlaQv6tXCFKCAgKKDcm",
    "countryID" : "-KTyxBZ1_tV4asRFzpy1",
    "date" : 0,
    "latitude" : -25.917957,
    "longitude" : 29.928743,
    "name" : "Grootpan",
    "provinceName" : "Mpumalanga"
  },
  "-KlaQv6v-MDQzbVfx-ZP" : {
    "cityID" : "-KlaQv6v-MDQzbVfx-ZP",
    "countryID" : "-KTyxBZ1_tV4asRFzpy1",
    "date" : 0,
    "latitude" : -22.765199,
    "longitude" : 28.821927,
    "name" : "Grootpan",
    "provinceName" : "Limpopo"
  },
  "-KlaQv6we_DIIVgMJtKO" : {
    "cityID" : "-KlaQv6we_DIIVgMJtKO",
    "countryID" : "-KTyxBZ1_tV4asRFzpy1",
    "date" : 0,
    "latitude" : -33.416667,
    "longitude" : 24.666667,
    "name" : "Grootrivierdrif",
    "provinceName" : "Eastern Cape"
  },
  "-KlaQv6x3cw2VucMpwX1" : {
    "cityID" : "-KlaQv6x3cw2VucMpwX1",
    "countryID" : "-KTyxBZ1_tV4asRFzpy1",
    "date" : 0,
    "latitude" : -33.383333,
    "longitude" : 19.5,
    "name" : "Grootrivier",
    "provinceName" : "Western Cape"
  },
  "-KlaQv6yI5BW6rDz65GU" : {
    "cityID" : "-KlaQv6yI5BW6rDz65GU",
    "countryID" : "-KTyxBZ1_tV4asRFzpy1",
    "date" : 0,
    "latitude" : -32.181022,
    "longitude" : 25.275928,
    "name" : "Groot-Samenkomst",
    "provinceName" : "Eastern Cape"
  },
  "-KlaQv6zM0ZuBzWknXCf" : {
    "cityID" : "-KlaQv6zM0ZuBzWknXCf",
    "countryID" : "-KTyxBZ1_tV4asRFzpy1",
    "date" : 0,
    "latitude" : -31.743034,
    "longitude" : 26.395126,
    "name" : "Grootschuur",
    "provinceName" : "Eastern Cape"
  },
  "-KlaQv70QFsu_Y_E2Y9j" : {
    "cityID" : "-KlaQv70QFsu_Y_E2Y9j",
    "countryID" : "-KTyxBZ1_tV4asRFzpy1",
    "date" : 0,
    "latitude" : -34.109667,
    "longitude" : 18.405329,
    "name" : "Groot Silwermyn",
    "provinceName" : "Western Cape"
  },
  "-KlaQv71gzwi8BWdIkHK" : {
    "cityID" : "-KlaQv71gzwi8BWdIkHK",
    "countryID" : "-KTyxBZ1_tV4asRFzpy1",
    "date" : 0,
    "latitude" : -27.033333,
    "longitude" : 30.433333,
    "name" : "Grootspruit",
    "provinceName" : "Mpumalanga"
  },
  "-KlaQv72n3RPsBwBziX3" : {
    "cityID" : "-KlaQv72n3RPsBwBziX3",
    "countryID" : "-KTyxBZ1_tV4asRFzpy1",
    "date" : 0,
    "latitude" : -31.381062,
    "longitude" : 25.947006,
    "name" : "Groot Strydpoort",
    "provinceName" : "Eastern Cape"
  },
  "-KlaQv73PiBtsZ6ya3Ef" : {
    "cityID" : "-KlaQv73PiBtsZ6ya3Ef",
    "countryID" : "-KTyxBZ1_tV4asRFzpy1",
    "date" : 0,
    "latitude" : -30.337475,
    "longitude" : 25.811647,
    "name" : "Groot-Suurfontein",
    "provinceName" : "Free State"
  },
  "-KlaQv75I7wqwo4DduPS" : {
    "cityID" : "-KlaQv75I7wqwo4DduPS",
    "countryID" : "-KTyxBZ1_tV4asRFzpy1",
    "date" : 0,
    "latitude" : -31.614246,
    "longitude" : 29.42367,
    "name" : "Groot Umgazi",
    "provinceName" : "Eastern Cape"
  },
  "-KlaQv76Qj8q9giyv2wD" : {
    "cityID" : "-KlaQv76Qj8q9giyv2wD",
    "countryID" : "-KTyxBZ1_tV4asRFzpy1",
    "date" : 0,
    "latitude" : -31.614246,
    "longitude" : 29.42367,
    "name" : "Groot-Umngazi",
    "provinceName" : "Eastern Cape"
  },
  "-KlaQv776mDjhgWfl61P" : {
    "cityID" : "-KlaQv776mDjhgWfl61P",
    "countryID" : "-KTyxBZ1_tV4asRFzpy1",
    "date" : 0,
    "latitude" : -29.600608,
    "longitude" : 26.340888,
    "name" : "Grootverlang",
    "provinceName" : "Free State"
  },
  "-KlaQv79nFVONUzQD-7j" : {
    "cityID" : "-KlaQv79nFVONUzQD-7j",
    "countryID" : "-KTyxBZ1_tV4asRFzpy1",
    "date" : 0,
    "latitude" : -30.334147,
    "longitude" : 26.707886,
    "name" : "Grootvlei",
    "provinceName" : "Free State"
  },
  "-KlaQv7AZVyRZjxY-8yF" : {
    "cityID" : "-KlaQv7AZVyRZjxY-8yF",
    "countryID" : "-KTyxBZ1_tV4asRFzpy1",
    "date" : 0,
    "latitude" : -31.343612,
    "longitude" : 25.694423,
    "name" : "Grootvlei",
    "provinceName" : "Eastern Cape"
  },
  "-KlaQv7BP9F5b0zfvj-k" : {
    "cityID" : "-KlaQv7BP9F5b0zfvj-k",
    "countryID" : "-KTyxBZ1_tV4asRFzpy1",
    "date" : 0,
    "latitude" : -26.762469,
    "longitude" : 28.483823,
    "name" : "Grootvlei",
    "provinceName" : "Mpumalanga"
  },
  "-KlaQv7DOgsbUBeuzGcV" : {
    "cityID" : "-KlaQv7DOgsbUBeuzGcV",
    "countryID" : "-KTyxBZ1_tV4asRFzpy1",
    "date" : 0,
    "latitude" : -29.653773,
    "longitude" : 26.312565,
    "name" : "Grootwater",
    "provinceName" : "Free State"
  },
  "-KlaQv7EIireV3uUH3gV" : {
    "cityID" : "-KlaQv7EIireV3uUH3gV",
    "countryID" : "-KTyxBZ1_tV4asRFzpy1",
    "date" : 0,
    "latitude" : -29.185871,
    "longitude" : 22.353116,
    "name" : "Groot Witberg",
    "provinceName" : "Northern Cape"
  },
  "-KlaQv7FJKFFAScKf30z" : {
    "cityID" : "-KlaQv7FJKFFAScKf30z",
    "countryID" : "-KTyxBZ1_tV4asRFzpy1",
    "date" : 0,
    "latitude" : -33.366667,
    "longitude" : 19.483333,
    "name" : "Groot Zwaarmoed",
    "provinceName" : "Western Cape"
  },
  "-KlaQv7Hwcuffq8ULK0M" : {
    "cityID" : "-KlaQv7Hwcuffq8ULK0M",
    "countryID" : "-KTyxBZ1_tV4asRFzpy1",
    "date" : 0,
    "latitude" : -29.914416,
    "longitude" : 31.008076,
    "name" : "Grosvenor",
    "provinceName" : "KwaZulu Natal"
  },
  "-KlaQv7IW1b0HQicNRw6" : {
    "cityID" : "-KlaQv7IW1b0HQicNRw6",
    "countryID" : "-KTyxBZ1_tV4asRFzpy1",
    "date" : 0,
    "latitude" : -29.389426,
    "longitude" : 31.246065,
    "name" : "Groutville",
    "provinceName" : "KwaZulu Natal"
  },
  "-KlaQv7JzV_awH96tKmP" : {
    "cityID" : "-KlaQv7JzV_awH96tKmP",
    "countryID" : "-KTyxBZ1_tV4asRFzpy1",
    "date" : 0,
    "latitude" : -32.566667,
    "longitude" : 28.483333,
    "name" : "Groxozayo",
    "provinceName" : "Eastern Cape"
  },
  "-KlaQv7KfdNFRcrtpxUA" : {
    "cityID" : "-KlaQv7KfdNFRcrtpxUA",
    "countryID" : "-KTyxBZ1_tV4asRFzpy1",
    "date" : 0,
    "latitude" : -31.612843,
    "longitude" : 25.771031,
    "name" : "Gruisklip",
    "provinceName" : "Eastern Cape"
  },
  "-KlaQv7L5iIC6yl7bOzs" : {
    "cityID" : "-KlaQv7L5iIC6yl7bOzs",
    "countryID" : "-KTyxBZ1_tV4asRFzpy1",
    "date" : 0,
    "latitude" : -27.25,
    "longitude" : 29.166667,
    "name" : "Gruisplaats",
    "provinceName" : "Free State"
  },
  "-KlaQv7NyeXfNfBWyghB" : {
    "cityID" : "-KlaQv7NyeXfNfBWyghB",
    "countryID" : "-KTyxBZ1_tV4asRFzpy1",
    "date" : 0,
    "latitude" : -27.848164,
    "longitude" : 23.488585,
    "name" : "Grypoort",
    "provinceName" : "Northern Cape"
  },
  "-KlaQv7Op6mMI1yvxO3B" : {
    "cityID" : "-KlaQv7Op6mMI1yvxO3B",
    "countryID" : "-KTyxBZ1_tV4asRFzpy1",
    "date" : 0,
    "latitude" : -30.133894,
    "longitude" : 26.82461,
    "name" : "Grysdal",
    "provinceName" : "Free State"
  },
  "-KlaQv7PWhuZl2M9OK0t" : {
    "cityID" : "-KlaQv7PWhuZl2M9OK0t",
    "countryID" : "-KTyxBZ1_tV4asRFzpy1",
    "date" : 0,
    "latitude" : -31.562801,
    "longitude" : 27.366575,
    "name" : "Guba",
    "provinceName" : "Eastern Cape"
  },
  "-KlaQv7QOnUyYNDFzEo8" : {
    "cityID" : "-KlaQv7QOnUyYNDFzEo8",
    "countryID" : "-KTyxBZ1_tV4asRFzpy1",
    "date" : 0,
    "latitude" : -31.516423,
    "longitude" : 27.306259,
    "name" : "Gubahoek",
    "provinceName" : "Eastern Cape"
  },
  "-KlaQv7RsOI8hCVjTLAs" : {
    "cityID" : "-KlaQv7RsOI8hCVjTLAs",
    "countryID" : "-KTyxBZ1_tV4asRFzpy1",
    "date" : 0,
    "latitude" : -32.733333,
    "longitude" : 28.083333,
    "name" : "Gubeni",
    "provinceName" : "Eastern Cape"
  },
  "-KlaQv7TrxL-OdQdG91v" : {
    "cityID" : "-KlaQv7TrxL-OdQdG91v",
    "countryID" : "-KTyxBZ1_tV4asRFzpy1",
    "date" : 0,
    "latitude" : -31.35446,
    "longitude" : 28.148033,
    "name" : "Gubenxa",
    "provinceName" : "Eastern Cape"
  },
  "-KlaQv7UHYbj6E1DoBrY" : {
    "cityID" : "-KlaQv7UHYbj6E1DoBrY",
    "countryID" : "-KTyxBZ1_tV4asRFzpy1",
    "date" : 0,
    "latitude" : -31.35446,
    "longitude" : 28.148033,
    "name" : "Gubenxa Kroon",
    "provinceName" : "Eastern Cape"
  },
  "-KlaQv7VJBF_kyGWNqAi" : {
    "cityID" : "-KlaQv7VJBF_kyGWNqAi",
    "countryID" : "-KTyxBZ1_tV4asRFzpy1",
    "date" : 0,
    "latitude" : -30.631194,
    "longitude" : 28.968407,
    "name" : "Gubhuzi",
    "provinceName" : "Eastern Cape"
  },
  "-KlaQv7WByGR1px1uEI8" : {
    "cityID" : "-KlaQv7WByGR1px1uEI8",
    "countryID" : "-KTyxBZ1_tV4asRFzpy1",
    "date" : 0,
    "latitude" : -30.740639,
    "longitude" : 29.145715,
    "name" : "Gubuzi",
    "provinceName" : "Eastern Cape"
  },
  "-KlaQv7X8niYhV62UNyI" : {
    "cityID" : "-KlaQv7X8niYhV62UNyI",
    "countryID" : "-KTyxBZ1_tV4asRFzpy1",
    "date" : 0,
    "latitude" : -31.121759,
    "longitude" : 29.332161,
    "name" : "Gudeka",
    "provinceName" : "Eastern Cape"
  },
  "-KlaQv7ZaKJ6CNNgHra9" : {
    "cityID" : "-KlaQv7ZaKJ6CNNgHra9",
    "countryID" : "-KTyxBZ1_tV4asRFzpy1",
    "date" : 0,
    "latitude" : -31.900911,
    "longitude" : 28.55746,
    "name" : "Guduse",
    "provinceName" : "Eastern Cape"
  },
  "-KlaQv7_vxiecm8phzFP" : {
    "cityID" : "-KlaQv7_vxiecm8phzFP",
    "countryID" : "-KTyxBZ1_tV4asRFzpy1",
    "date" : 0,
    "latitude" : -33.983511,
    "longitude" : 18.570596,
    "name" : "Guguletu",
    "provinceName" : "Western Cape"
  },
  "-KlaQv7aohvjw5SqzjTW" : {
    "cityID" : "-KlaQv7aohvjw5SqzjTW",
    "countryID" : "-KTyxBZ1_tV4asRFzpy1",
    "date" : 0,
    "latitude" : -30.501519,
    "longitude" : 29.940445,
    "name" : "Gugwini",
    "provinceName" : "Eastern Cape"
  },
  "-KlaQv7btXF7IjT_vsFw" : {
    "cityID" : "-KlaQv7btXF7IjT_vsFw",
    "countryID" : "-KTyxBZ1_tV4asRFzpy1",
    "date" : 0,
    "latitude" : -30.189079,
    "longitude" : 26.994412,
    "name" : "Guinesses",
    "provinceName" : "Free State"
  },
  "-KlaQv7cpeLfZ3h_2dgD" : {
    "cityID" : "-KlaQv7cpeLfZ3h_2dgD",
    "countryID" : "-KTyxBZ1_tV4asRFzpy1",
    "date" : 0,
    "latitude" : -31.59792,
    "longitude" : 28.035232,
    "name" : "Gulandoda",
    "provinceName" : "Eastern Cape"
  },
  "-KlaQv7eb8DzUxlLluWi" : {
    "cityID" : "-KlaQv7eb8DzUxlLluWi",
    "countryID" : "-KTyxBZ1_tV4asRFzpy1",
    "date" : 0,
    "latitude" : -30.333102,
    "longitude" : 30.500248,
    "name" : "Guleka",
    "provinceName" : "KwaZulu Natal"
  },
  "-KlaQv7fveLbVYmi_Q7W" : {
    "cityID" : "-KlaQv7fveLbVYmi_Q7W",
    "countryID" : "-KTyxBZ1_tV4asRFzpy1",
    "date" : 0,
    "latitude" : -30.333102,
    "longitude" : 30.500248,
    "name" : "Guliga",
    "provinceName" : "KwaZulu Natal"
  },
  "-KlaQv7gzXEiMBjtgOC4" : {
    "cityID" : "-KlaQv7gzXEiMBjtgOC4",
    "countryID" : "-KTyxBZ1_tV4asRFzpy1",
    "date" : 0,
    "latitude" : -33.114725,
    "longitude" : 27.725931,
    "name" : "Gulu",
    "provinceName" : "Eastern Cape"
  },
  "-KlaQv7huV7OEjjtLs2V" : {
    "cityID" : "-KlaQv7huV7OEjjtLs2V",
    "countryID" : "-KTyxBZ1_tV4asRFzpy1",
    "date" : 0,
    "latitude" : -31.167539,
    "longitude" : 26.55582,
    "name" : "Gumdale",
    "provinceName" : "Eastern Cape"
  },
  "-KlaQv7iGU6F2cUdZ7DV" : {
    "cityID" : "-KlaQv7iGU6F2cUdZ7DV",
    "countryID" : "-KTyxBZ1_tV4asRFzpy1",
    "date" : 0,
    "latitude" : -32.333333,
    "longitude" : 28.816667,
    "name" : "Gume",
    "provinceName" : "Eastern Cape"
  },
  "-KlaQv7krh_AROGdJAZP" : {
    "cityID" : "-KlaQv7krh_AROGdJAZP",
    "countryID" : "-KTyxBZ1_tV4asRFzpy1",
    "date" : 0,
    "latitude" : -31.025883,
    "longitude" : 29.984492,
    "name" : "Gumzana",
    "provinceName" : "Eastern Cape"
  },
  "-KlaQv7lpqzrXKw_p3ep" : {
    "cityID" : "-KlaQv7lpqzrXKw_p3ep",
    "countryID" : "-KTyxBZ1_tV4asRFzpy1",
    "date" : 0,
    "latitude" : -31.429524,
    "longitude" : 28.860576,
    "name" : "Gungululu",
    "provinceName" : "Eastern Cape"
  },
  "-KlaQv7nqsb21zzu5xLr" : {
    "cityID" : "-KlaQv7nqsb21zzu5xLr",
    "countryID" : "-KTyxBZ1_tV4asRFzpy1",
    "date" : 0,
    "latitude" : -28.644495,
    "longitude" : 30.351765,
    "name" : "Gunjana",
    "provinceName" : "KwaZulu Natal"
  },
  "-KlaQv7omNXN0kQpKEGN" : {
    "cityID" : "-KlaQv7omNXN0kQpKEGN",
    "countryID" : "-KTyxBZ1_tV4asRFzpy1",
    "date" : 0,
    "latitude" : -31.028961,
    "longitude" : 28.83599,
    "name" : "Gura",
    "provinceName" : "Eastern Cape"
  },
  "-KlaQv7pJrQ3cP0DDcXn" : {
    "cityID" : "-KlaQv7pJrQ3cP0DDcXn",
    "countryID" : "-KTyxBZ1_tV4asRFzpy1",
    "date" : 0,
    "latitude" : -31.82693,
    "longitude" : 27.465655,
    "name" : "Guse",
    "provinceName" : "Eastern Cape"
  },
  "-KlaQv7rWf_JIhDW0C_w" : {
    "cityID" : "-KlaQv7rWf_JIhDW0C_w",
    "countryID" : "-KTyxBZ1_tV4asRFzpy1",
    "date" : 0,
    "latitude" : -28.17504,
    "longitude" : 31.654167,
    "name" : "Gusenzamo",
    "provinceName" : "KwaZulu Natal"
  },
  "-KlaQv7ss16yki6FIdbL" : {
    "cityID" : "-KlaQv7ss16yki6FIdbL",
    "countryID" : "-KTyxBZ1_tV4asRFzpy1",
    "date" : 0,
    "latitude" : -25.6,
    "longitude" : 30.933333,
    "name" : "Guthrie",
    "provinceName" : "Mpumalanga"
  },
  "-KlaQv7t4VF17ET4hdpg" : {
    "cityID" : "-KlaQv7t4VF17ET4hdpg",
    "countryID" : "-KTyxBZ1_tV4asRFzpy1",
    "date" : 0,
    "latitude" : -25.266667,
    "longitude" : 31.2,
    "name" : "Gutshwa",
    "provinceName" : "Mpumalanga"
  },
  "-KlaQv7ugsvotk_6c9b0" : {
    "cityID" : "-KlaQv7ugsvotk_6c9b0",
    "countryID" : "-KTyxBZ1_tV4asRFzpy1",
    "date" : 0,
    "latitude" : -25.299952,
    "longitude" : 31.147185,
    "name" : "Gutshwe",
    "provinceName" : "Mpumalanga"
  },
  "-KlaQv7wPCyPK1ZKQ1_g" : {
    "cityID" : "-KlaQv7wPCyPK1ZKQ1_g",
    "countryID" : "-KTyxBZ1_tV4asRFzpy1",
    "date" : 0,
    "latitude" : -30.735568,
    "longitude" : 29.436895,
    "name" : "Guwini",
    "provinceName" : "Eastern Cape"
  },
  "-KlaQv7xMtHKYJfilXE1" : {
    "cityID" : "-KlaQv7xMtHKYJfilXE1",
    "countryID" : "-KTyxBZ1_tV4asRFzpy1",
    "date" : 0,
    "latitude" : -32.319148,
    "longitude" : 28.557515,
    "name" : "Guxuxu",
    "provinceName" : "Eastern Cape"
  },
  "-KlaQv7z0F9mQ-XWopq0" : {
    "cityID" : "-KlaQv7z0F9mQ-XWopq0",
    "countryID" : "-KTyxBZ1_tV4asRFzpy1",
    "date" : 0,
    "latitude" : -32.214563,
    "longitude" : 28.292797,
    "name" : "Gwadana",
    "provinceName" : "Eastern Cape"
  },
  "-KlaQv8--mZP4JxeDab8" : {
    "cityID" : "-KlaQv8--mZP4JxeDab8",
    "countryID" : "-KTyxBZ1_tV4asRFzpy1",
    "date" : 0,
    "latitude" : -32.183333,
    "longitude" : 28.616667,
    "name" : "Gwadu",
    "provinceName" : "Eastern Cape"
  },
  "-KlaQv80qcjvcAeTd7JM" : {
    "cityID" : "-KlaQv80qcjvcAeTd7JM",
    "countryID" : "-KTyxBZ1_tV4asRFzpy1",
    "date" : 0,
    "latitude" : -22.4,
    "longitude" : 31.3,
    "name" : "Gwalali",
    "provinceName" : "Limpopo"
  },
  "-KlaQv81P4yjdvcwegoI" : {
    "cityID" : "-KlaQv81P4yjdvcwegoI",
    "countryID" : "-KTyxBZ1_tV4asRFzpy1",
    "date" : 0,
    "latitude" : -33.271336,
    "longitude" : 27.112032,
    "name" : "Gwalana",
    "provinceName" : "Eastern Cape"
  },
  "-KlaQv82g102_1GGOJza" : {
    "cityID" : "-KlaQv82g102_1GGOJza",
    "countryID" : "-KTyxBZ1_tV4asRFzpy1",
    "date" : 0,
    "latitude" : -24.733333,
    "longitude" : 27.483333,
    "name" : "Gwarriehoek",
    "provinceName" : "Limpopo"
  },
  "-KlaQv83I1-0gayudU-R" : {
    "cityID" : "-KlaQv83I1-0gayudU-R",
    "countryID" : "-KTyxBZ1_tV4asRFzpy1",
    "date" : 0,
    "latitude" : -29.008988,
    "longitude" : 26.214247,
    "name" : "Gwentham",
    "provinceName" : "Free State"
  },
  "-KlaQv85WsdEWTQXb3rV" : {
    "cityID" : "-KlaQv85WsdEWTQXb3rV",
    "countryID" : "-KTyxBZ1_tV4asRFzpy1",
    "date" : 0,
    "latitude" : -24.909926,
    "longitude" : 31.039323,
    "name" : "Gweta",
    "provinceName" : "Mpumalanga"
  },
  "-KlaQv86Ih9Hv_x2Ae4a" : {
    "cityID" : "-KlaQv86Ih9Hv_x2Ae4a",
    "countryID" : "-KTyxBZ1_tV4asRFzpy1",
    "date" : 0,
    "latitude" : -32.680489,
    "longitude" : 27.20232,
    "name" : "Gwili Gwili",
    "provinceName" : "Eastern Cape"
  },
  "-KlaQv87HvbiwEoaxa37" : {
    "cityID" : "-KlaQv87HvbiwEoaxa37",
    "countryID" : "-KTyxBZ1_tV4asRFzpy1",
    "date" : 0,
    "latitude" : -32.599707,
    "longitude" : 28.377149,
    "name" : "Gxaha",
    "provinceName" : "Eastern Cape"
  },
  "-KlaQv884Hky688_2haP" : {
    "cityID" : "-KlaQv884Hky688_2haP",
    "countryID" : "-KTyxBZ1_tV4asRFzpy1",
    "date" : 0,
    "latitude" : -30.683333,
    "longitude" : 28.633333,
    "name" : "Gxaku",
    "provinceName" : "Eastern Cape"
  },
  "-KlaQv89dTmQEMSsIU_i" : {
    "cityID" : "-KlaQv89dTmQEMSsIU_i",
    "countryID" : "-KTyxBZ1_tV4asRFzpy1",
    "date" : 0,
    "latitude" : -31.999355,
    "longitude" : 28.288117,
    "name" : "Gxara",
    "provinceName" : "Eastern Cape"
  },
  "-KlaQv8B-iZQ12QysHso" : {
    "cityID" : "-KlaQv8B-iZQ12QysHso",
    "countryID" : "-KTyxBZ1_tV4asRFzpy1",
    "date" : 0,
    "latitude" : -32.599707,
    "longitude" : 28.377149,
    "name" : "Gxara Trading Station",
    "provinceName" : "Eastern Cape"
  },
  "-KlaQv8C2WBEZs00jitq" : {
    "cityID" : "-KlaQv8C2WBEZs00jitq",
    "countryID" : "-KTyxBZ1_tV4asRFzpy1",
    "date" : 0,
    "latitude" : -31.587855,
    "longitude" : 29.268228,
    "name" : "Gxokoza",
    "provinceName" : "Eastern Cape"
  },
  "-KlaQv8Dd8KhfLTCeeuT" : {
    "cityID" : "-KlaQv8Dd8KhfLTCeeuT",
    "countryID" : "-KTyxBZ1_tV4asRFzpy1",
    "date" : 0,
    "latitude" : -33.114725,
    "longitude" : 27.725931,
    "name" : "Gxulu",
    "provinceName" : "Eastern Cape"
  },
  "-KlaQv8ECPtaQwafGRIz" : {
    "cityID" : "-KlaQv8ECPtaQwafGRIz",
    "countryID" : "-KTyxBZ1_tV4asRFzpy1",
    "date" : 0,
    "latitude" : -30.738915,
    "longitude" : 29.528272,
    "name" : "Gxwaleni",
    "provinceName" : "Eastern Cape"
  },
  "-KlaQv8ICf9J8HcDzRDy" : {
    "cityID" : "-KlaQv8ICf9J8HcDzRDy",
    "countryID" : "-KTyxBZ1_tV4asRFzpy1",
    "date" : 0,
    "latitude" : -25.187978,
    "longitude" : 29.565522,
    "name" : "Haakdoorndraai",
    "provinceName" : "Mpumalanga"
  },
  "-KlaQv8Jag3QDt60xAtl" : {
    "cityID" : "-KlaQv8Jag3QDt60xAtl",
    "countryID" : "-KTyxBZ1_tV4asRFzpy1",
    "date" : 0,
    "latitude" : -28.983333,
    "longitude" : 22.3,
    "name" : "Haakdoorn",
    "provinceName" : "Northern Cape"
  },
  "-KlaQv8KQIU8Jq043CeZ" : {
    "cityID" : "-KlaQv8KQIU8Jq043CeZ",
    "countryID" : "-KTyxBZ1_tV4asRFzpy1",
    "date" : 0,
    "latitude" : -25.187978,
    "longitude" : 29.565522,
    "name" : "Haakdoringdraai",
    "provinceName" : "Mpumalanga"
  },
  "-KlaQv8LXBEKtA02SnWX" : {
    "cityID" : "-KlaQv8LXBEKtA02SnWX",
    "countryID" : "-KTyxBZ1_tV4asRFzpy1",
    "date" : 0,
    "latitude" : -31.044591,
    "longitude" : 26.569909,
    "name" : "Haarlem",
    "provinceName" : "Eastern Cape"
  },
  "-KlaQv8N-w0MUxLxN8_V" : {
    "cityID" : "-KlaQv8N-w0MUxLxN8_V",
    "countryID" : "-KTyxBZ1_tV4asRFzpy1",
    "date" : 0,
    "latitude" : -33.73302,
    "longitude" : 23.342632,
    "name" : "Haarlem",
    "provinceName" : "Western Cape"
  },
  "-KlaQv8O8blFE70faN7_" : {
    "cityID" : "-KlaQv8O8blFE70faN7_",
    "countryID" : "-KTyxBZ1_tV4asRFzpy1",
    "date" : 0,
    "latitude" : -31.956656,
    "longitude" : 26.353478,
    "name" : "Haasfonteindorings",
    "provinceName" : "Eastern Cape"
  },
  "-KlaQv8PHqpijs5N2MVa" : {
    "cityID" : "-KlaQv8PHqpijs5N2MVa",
    "countryID" : "-KTyxBZ1_tV4asRFzpy1",
    "date" : 0,
    "latitude" : -26.768035,
    "longitude" : 27.034809,
    "name" : "Haaskraal",
    "provinceName" : "North West"
  },
  "-KlaQv8QHDADDytow9Eh" : {
    "cityID" : "-KlaQv8QHDADDytow9Eh",
    "countryID" : "-KTyxBZ1_tV4asRFzpy1",
    "date" : 0,
    "latitude" : -31.157645,
    "longitude" : 26.112934,
    "name" : "Haaspoort",
    "provinceName" : "Eastern Cape"
  },
  "-KlaQv8Smo9CHYH-3s2m" : {
    "cityID" : "-KlaQv8Smo9CHYH-3s2m",
    "countryID" : "-KTyxBZ1_tV4asRFzpy1",
    "date" : 0,
    "latitude" : -32.333333,
    "longitude" : 26.65,
    "name" : "Hackney and Cibini",
    "provinceName" : "Eastern Cape"
  },
  "-KlaQv8TYPtbogmHklYW" : {
    "cityID" : "-KlaQv8TYPtbogmHklYW",
    "countryID" : "-KTyxBZ1_tV4asRFzpy1",
    "date" : 0,
    "latitude" : -32.317199,
    "longitude" : 26.645061,
    "name" : "Hackney",
    "provinceName" : "Eastern Cape"
  },
  "-KlaQv8VXpnAvbLZl75o" : {
    "cityID" : "-KlaQv8VXpnAvbLZl75o",
    "countryID" : "-KTyxBZ1_tV4asRFzpy1",
    "date" : 0,
    "latitude" : -30.266667,
    "longitude" : 28.583333,
    "name" : "Hadiaho",
    "provinceName" : "Eastern Cape"
  },
  "-KlaQv8W_AwzSqLxHKQh" : {
    "cityID" : "-KlaQv8W_AwzSqLxHKQh",
    "countryID" : "-KTyxBZ1_tV4asRFzpy1",
    "date" : 0,
    "latitude" : -31.5503,
    "longitude" : 28.8258,
    "name" : "Hadi",
    "provinceName" : "Eastern Cape"
  },
  "-KlaQv8XKMBQc1TviC8R" : {
    "cityID" : "-KlaQv8XKMBQc1TviC8R",
    "countryID" : "-KTyxBZ1_tV4asRFzpy1",
    "date" : 0,
    "latitude" : -23.944368,
    "longitude" : 29.944866,
    "name" : "Haenerstburg",
    "provinceName" : "Limpopo"
  },
  "-KlaQv90SGlTzdT2AY_F" : {
    "cityID" : "-KlaQv90SGlTzdT2AY_F",
    "countryID" : "-KTyxBZ1_tV4asRFzpy1",
    "date" : 0,
    "latitude" : -23.944368,
    "longitude" : 29.944866,
    "name" : "Haenertsburg",
    "provinceName" : "Limpopo"
  },
  "-KlaQv91bBrXlo5F1Dp_" : {
    "cityID" : "-KlaQv91bBrXlo5F1Dp_",
    "countryID" : "-KTyxBZ1_tV4asRFzpy1",
    "date" : 0,
    "latitude" : -22.589149,
    "longitude" : 30.425048,
    "name" : "Ha-Folovhodwe",
    "provinceName" : "Limpopo"
  },
  "-KlaQv92dEuOiXB1xc9j" : {
    "cityID" : "-KlaQv92dEuOiXB1xc9j",
    "countryID" : "-KTyxBZ1_tV4asRFzpy1",
    "date" : 0,
    "latitude" : -32.763495,
    "longitude" : 28.246455,
    "name" : "Haga-Haga Bay",
    "provinceName" : "Eastern Cape"
  },
  "-KlaQv93pS1_cnyR4fDR" : {
    "cityID" : "-KlaQv93pS1_cnyR4fDR",
    "countryID" : "-KTyxBZ1_tV4asRFzpy1",
    "date" : 0,
    "latitude" : -32.763495,
    "longitude" : 28.246455,
    "name" : "Haga-Haga",
    "provinceName" : "Eastern Cape"
  },
  "-KlaQv94ZqS9Gom3jJHX" : {
    "cityID" : "-KlaQv94ZqS9Gom3jJHX",
    "countryID" : "-KTyxBZ1_tV4asRFzpy1",
    "date" : 0,
    "latitude" : -29.358063,
    "longitude" : 25.783446,
    "name" : "Hagesdam",
    "provinceName" : "Free State"
  },
  "-KlaQv95loLB6hyjnJzu" : {
    "cityID" : "-KlaQv95loLB6hyjnJzu",
    "countryID" : "-KTyxBZ1_tV4asRFzpy1",
    "date" : 0,
    "latitude" : -30.25,
    "longitude" : 28.583333,
    "name" : "Haisaka",
    "provinceName" : "Eastern Cape"
  },
  "-KlaQv96TCk6SJszqJQA" : {
    "cityID" : "-KlaQv96TCk6SJszqJQA",
    "countryID" : "-KTyxBZ1_tV4asRFzpy1",
    "date" : 0,
    "latitude" : -26.327113,
    "longitude" : 26.152982,
    "name" : "Hakboslaagte",
    "provinceName" : "North West"
  },
  "-KlaQv97VX4QdejhawkL" : {
    "cityID" : "-KlaQv97VX4QdejhawkL",
    "countryID" : "-KTyxBZ1_tV4asRFzpy1",
    "date" : 0,
    "latitude" : -22.720273,
    "longitude" : 30.831499,
    "name" : "Ha-Lambani",
    "provinceName" : "Limpopo"
  },
  "-KlaQv9824mg6ZPKjEsF" : {
    "cityID" : "-KlaQv9824mg6ZPKjEsF",
    "countryID" : "-KTyxBZ1_tV4asRFzpy1",
    "date" : 0,
    "latitude" : -30.516667,
    "longitude" : 20.016667,
    "name" : "Halfpadrivier",
    "provinceName" : "Northern Cape"
  },
  "-KlaQv99r7FrG0CDxMAy" : {
    "cityID" : "-KlaQv99r7FrG0CDxMAy",
    "countryID" : "-KTyxBZ1_tV4asRFzpy1",
    "date" : 0,
    "latitude" : -25.997137,
    "longitude" : 28.129919,
    "name" : "Halfway House",
    "provinceName" : "Gauteng"
  },
  "-KlaQv9A8nYFj1Y1fwRg" : {
    "cityID" : "-KlaQv9A8nYFj1Y1fwRg",
    "countryID" : "-KTyxBZ1_tV4asRFzpy1",
    "date" : 0,
    "latitude" : -26.208188,
    "longitude" : 23.226071,
    "name" : "Halifax",
    "provinceName" : "North West"
  },
  "-KlaQv9B3DKWX4gBcJA-" : {
    "cityID" : "-KlaQv9B3DKWX4gBcJA-",
    "countryID" : "-KTyxBZ1_tV4asRFzpy1",
    "date" : 0,
    "latitude" : -33.966667,
    "longitude" : 25.6,
    "name" : "Hallack Rock",
    "provinceName" : "Eastern Cape"
  },
  "-KlaQv9Ca7MDCWNYQcH5" : {
    "cityID" : "-KlaQv9Ca7MDCWNYQcH5",
    "countryID" : "-KTyxBZ1_tV4asRFzpy1",
    "date" : 0,
    "latitude" : -31.533333,
    "longitude" : 26.816667,
    "name" : "Halseton",
    "provinceName" : "Eastern Cape"
  },
  "-KlaQv9DK_5ny6XFPv5H" : {
    "cityID" : "-KlaQv9DK_5ny6XFPv5H",
    "countryID" : "-KTyxBZ1_tV4asRFzpy1",
    "date" : 0,
    "latitude" : -22.850193,
    "longitude" : 30.281792,
    "name" : "Ha-Madala",
    "provinceName" : "Limpopo"
  },
  "-KlaQv9Exlp6mJ1jCbOV" : {
    "cityID" : "-KlaQv9Exlp6mJ1jCbOV",
    "countryID" : "-KTyxBZ1_tV4asRFzpy1",
    "date" : 0,
    "latitude" : -23.091312,
    "longitude" : 29.6793,
    "name" : "Ha-Madodonga",
    "provinceName" : "Limpopo"
  },
  "-KlaQv9F7kdPGoIPwUra" : {
    "cityID" : "-KlaQv9F7kdPGoIPwUra",
    "countryID" : "-KTyxBZ1_tV4asRFzpy1",
    "date" : 0,
    "latitude" : -23.132706,
    "longitude" : 29.848093,
    "name" : "Ha-Magau",
    "provinceName" : "Limpopo"
  },
  "-KlaQv9F7kdPGoIPwUrb" : {
    "cityID" : "-KlaQv9F7kdPGoIPwUrb",
    "countryID" : "-KTyxBZ1_tV4asRFzpy1",
    "date" : 0,
    "latitude" : -23.300082,
    "longitude" : 30.315696,
    "name" : "Ha-Magoro",
    "provinceName" : "Limpopo"
  },
  "-KlaQv9Gawq5R-Kz4pos" : {
    "cityID" : "-KlaQv9Gawq5R-Kz4pos",
    "countryID" : "-KTyxBZ1_tV4asRFzpy1",
    "date" : 0,
    "latitude" : -30.348432,
    "longitude" : 28.456346,
    "name" : "Ha-Majoro",
    "provinceName" : "Eastern Cape"
  },
  "-KlaQv9Hr8PgN0TrfPKF" : {
    "cityID" : "-KlaQv9Hr8PgN0TrfPKF",
    "countryID" : "-KTyxBZ1_tV4asRFzpy1",
    "date" : 0,
    "latitude" : -22.636789,
    "longitude" : 30.837469,
    "name" : "Hamakuya",
    "provinceName" : "Limpopo"
  },
  "-KlaQv9IPcqZquALEB2F" : {
    "cityID" : "-KlaQv9IPcqZquALEB2F",
    "countryID" : "-KTyxBZ1_tV4asRFzpy1",
    "date" : 0,
    "latitude" : -22.870657,
    "longitude" : 30.121835,
    "name" : "Ha-Mamuhoyi",
    "provinceName" : "Limpopo"
  },
  "-KlaQv9JHU-6KbSTOmNw" : {
    "cityID" : "-KlaQv9JHU-6KbSTOmNw",
    "countryID" : "-KTyxBZ1_tV4asRFzpy1",
    "date" : 0,
    "latitude" : -23.066667,
    "longitude" : 29.616667,
    "name" : "Ha-Manavhela",
    "provinceName" : "Limpopo"
  },
  "-KlaQv9KTJpFCONXYxSL" : {
    "cityID" : "-KlaQv9KTJpFCONXYxSL",
    "countryID" : "-KTyxBZ1_tV4asRFzpy1",
    "date" : 0,
    "latitude" : -23.07904,
    "longitude" : 29.774448,
    "name" : "Ha-Mantsha",
    "provinceName" : "Limpopo"
  },
  "-KlaQv9LPBotQsHah9MT" : {
    "cityID" : "-KlaQv9LPBotQsHah9MT",
    "countryID" : "-KTyxBZ1_tV4asRFzpy1",
    "date" : 0,
    "latitude" : -22.73424,
    "longitude" : 30.408524,
    "name" : "Ha-Matsheketsheke",
    "provinceName" : "Limpopo"
  },
  "-KlaQv9Mnzomil50p3Gv" : {
    "cityID" : "-KlaQv9Mnzomil50p3Gv",
    "countryID" : "-KTyxBZ1_tV4asRFzpy1",
    "date" : 0,
    "latitude" : -22.858894,
    "longitude" : 30.693608,
    "name" : "Ha-Matsika",
    "provinceName" : "Limpopo"
  },
  "-KlaQv9NZYPfep9NyQI9" : {
    "cityID" : "-KlaQv9NZYPfep9NyQI9",
    "countryID" : "-KTyxBZ1_tV4asRFzpy1",
    "date" : 0,
    "latitude" : -22.924925,
    "longitude" : 30.116817,
    "name" : "Ha-Mavhunga",
    "provinceName" : "Limpopo"
  },
  "-KlaQv9O4yAk9Wsf6q82" : {
    "cityID" : "-KlaQv9O4yAk9Wsf6q82",
    "countryID" : "-KTyxBZ1_tV4asRFzpy1",
    "date" : 0,
    "latitude" : -33.284099,
    "longitude" : 27.452699,
    "name" : "Hamburg",
    "provinceName" : "Eastern Cape"
  },
  "-KlaQv9PWnIAgb8MbEEn" : {
    "cityID" : "-KlaQv9PWnIAgb8MbEEn",
    "countryID" : "-KTyxBZ1_tV4asRFzpy1",
    "date" : 0,
    "latitude" : -28.943796,
    "longitude" : 31.719079,
    "name" : "Hamewith",
    "provinceName" : "KwaZulu Natal"
  },
  "-KlaQv9Qx3nci23aQAb6" : {
    "cityID" : "-KlaQv9Qx3nci23aQAb6",
    "countryID" : "-KTyxBZ1_tV4asRFzpy1",
    "date" : 0,
    "latitude" : -30.366147,
    "longitude" : 26.64944,
    "name" : "Hamilton",
    "provinceName" : "Free State"
  },
  "-KlaQv9ROwt55yNTjbxQ" : {
    "cityID" : "-KlaQv9ROwt55yNTjbxQ",
    "countryID" : "-KTyxBZ1_tV4asRFzpy1",
    "date" : 0,
    "latitude" : -25.40892,
    "longitude" : 28.286996,
    "name" : "Hammanskraal",
    "provinceName" : "North West"
  },
  "-KlaQv9SjieadFIF0JAR" : {
    "cityID" : "-KlaQv9SjieadFIF0JAR",
    "countryID" : "-KTyxBZ1_tV4asRFzpy1",
    "date" : 0,
    "latitude" : -29.800827,
    "longitude" : 30.651961,
    "name" : "Hammarsdale",
    "provinceName" : "KwaZulu Natal"
  },
  "-KlaQv9T4GOyjSzcM_Y9" : {
    "cityID" : "-KlaQv9T4GOyjSzcM_Y9",
    "countryID" : "-KTyxBZ1_tV4asRFzpy1",
    "date" : 0,
    "latitude" : -29.800827,
    "longitude" : 30.651961,
    "name" : "Hammersdale",
    "provinceName" : "KwaZulu Natal"
  },
  "-KlaQv9U5aTh5rtrd3aL" : {
    "cityID" : "-KlaQv9U5aTh5rtrd3aL",
    "countryID" : "-KTyxBZ1_tV4asRFzpy1",
    "date" : 0,
    "latitude" : -30.36058,
    "longitude" : 28.35087,
    "name" : "Ha-Mothibisi",
    "provinceName" : "Eastern Cape"
  },
  "-KlaQv9VEocajTNMDNBO" : {
    "cityID" : "-KlaQv9VEocajTNMDNBO",
    "countryID" : "-KTyxBZ1_tV4asRFzpy1",
    "date" : 0,
    "latitude" : -31.794713,
    "longitude" : 29.084882,
    "name" : "Hamsini",
    "provinceName" : "Eastern Cape"
  },
  "-KlaQv9WQkDS_XD96QNO" : {
    "cityID" : "-KlaQv9WQkDS_XD96QNO",
    "countryID" : "-KTyxBZ1_tV4asRFzpy1",
    "date" : 0,
    "latitude" : -23.1,
    "longitude" : 29.733333,
    "name" : "Ha-Mubua",
    "provinceName" : "Limpopo"
  },
  "-KlaQv9X-EbpIDJ_t5WV" : {
    "cityID" : "-KlaQv9X-EbpIDJ_t5WV",
    "countryID" : "-KTyxBZ1_tV4asRFzpy1",
    "date" : 0,
    "latitude" : -29.45707,
    "longitude" : 26.986696,
    "name" : "Hanakoe",
    "provinceName" : "Free State"
  },
  "-KlaQv9YNItitvTaxN9P" : {
    "cityID" : "-KlaQv9YNItitvTaxN9P",
    "countryID" : "-KTyxBZ1_tV4asRFzpy1",
    "date" : 0,
    "latitude" : -23.083333,
    "longitude" : 28.95,
    "name" : "Hananwa",
    "provinceName" : "Limpopo"
  },
  "-KlaQv9YNItitvTaxN9Q" : {
    "cityID" : "-KlaQv9YNItitvTaxN9Q",
    "countryID" : "-KTyxBZ1_tV4asRFzpy1",
    "date" : 0,
    "latitude" : -24.216667,
    "longitude" : 28.766667,
    "name" : "Hanglip",
    "provinceName" : "Limpopo"
  },
  "-KlaQv9ZlnJLPPxXFZqE" : {
    "cityID" : "-KlaQv9ZlnJLPPxXFZqE",
    "countryID" : "-KTyxBZ1_tV4asRFzpy1",
    "date" : 0,
    "latitude" : -24.45,
    "longitude" : 28.266667,
    "name" : "Haningfontein",
    "provinceName" : "Limpopo"
  },
  "-KlaQv9_2fEmEdp4OTyr" : {
    "cityID" : "-KlaQv9_2fEmEdp4OTyr",
    "countryID" : "-KTyxBZ1_tV4asRFzpy1",
    "date" : 0,
    "latitude" : -33.833079,
    "longitude" : 24.883586,
    "name" : "Hankey",
    "provinceName" : "Eastern Cape"
  },
  "-KlaQv9aUoqd2YwJ2QYa" : {
    "cityID" : "-KlaQv9aUoqd2YwJ2QYa",
    "countryID" : "-KTyxBZ1_tV4asRFzpy1",
    "date" : 0,
    "latitude" : -33.45,
    "longitude" : 23.216667,
    "name" : "Hannskop",
    "provinceName" : "Western Cape"
  },
  "-KlaQv9b6kH4rFbrY4Wi" : {
    "cityID" : "-KlaQv9b6kH4rFbrY4Wi",
    "countryID" : "-KTyxBZ1_tV4asRFzpy1",
    "date" : 0,
    "latitude" : -30.616638,
    "longitude" : 28.228445,
    "name" : "Ha-Nokholoko",
    "provinceName" : "Eastern Cape"
  },
  "-KlaQv9cwNA0Opc6VCSg" : {
    "cityID" : "-KlaQv9cwNA0Opc6VCSg",
    "countryID" : "-KTyxBZ1_tV4asRFzpy1",
    "date" : 0,
    "latitude" : -32.818993,
    "longitude" : 27.480597,
    "name" : "Hanover",
    "provinceName" : "Eastern Cape"
  },
  "-KlaQv9dmnYDMQaDHw5A" : {
    "cityID" : "-KlaQv9dmnYDMQaDHw5A",
    "countryID" : "-KTyxBZ1_tV4asRFzpy1",
    "date" : 0,
    "latitude" : -26.797338,
    "longitude" : 29.777589,
    "name" : "Hanover",
    "provinceName" : "Mpumalanga"
  },
  "-KlaQv9embqhgeKu7gPJ" : {
    "cityID" : "-KlaQv9embqhgeKu7gPJ",
    "countryID" : "-KTyxBZ1_tV4asRFzpy1",
    "date" : 0,
    "latitude" : -31.06856,
    "longitude" : 24.442516,
    "name" : "Hanover",
    "provinceName" : "Northern Cape"
  },
  "-KlaQv9gt2zY-QAJ-GLP" : {
    "cityID" : "-KlaQv9gt2zY-QAJ-GLP",
    "countryID" : "-KTyxBZ1_tV4asRFzpy1",
    "date" : 0,
    "latitude" : -33.994609,
    "longitude" : 18.529775,
    "name" : "Hanover Park",
    "provinceName" : "Western Cape"
  },
  "-KlaQv9hX2GbtseeuYYK" : {
    "cityID" : "-KlaQv9hX2GbtseeuYYK",
    "countryID" : "-KTyxBZ1_tV4asRFzpy1",
    "date" : 0,
    "latitude" : -30.952372,
    "longitude" : 24.53683,
    "name" : "Hanover Road",
    "provinceName" : "Northern Cape"
  },
  "-KlaQv9i4uBafnCiD_LM" : {
    "cityID" : "-KlaQv9i4uBafnCiD_LM",
    "countryID" : "-KTyxBZ1_tV4asRFzpy1",
    "date" : 0,
    "latitude" : -30.952372,
    "longitude" : 24.53683,
    "name" : "Hanoverweg",
    "provinceName" : "Northern Cape"
  },
  "-KlaQv9jiW6oX1zCLasj" : {
    "cityID" : "-KlaQv9jiW6oX1zCLasj",
    "countryID" : "-KTyxBZ1_tV4asRFzpy1",
    "date" : 0,
    "latitude" : -24.933333,
    "longitude" : 30.2,
    "name" : "Hanslaagte",
    "provinceName" : "Mpumalanga"
  },
  "-KlaQv9kKuYMg9VNhK-R" : {
    "cityID" : "-KlaQv9kKuYMg9VNhK-R",
    "countryID" : "-KTyxBZ1_tV4asRFzpy1",
    "date" : 0,
    "latitude" : -23.983333,
    "longitude" : 28.833333,
    "name" : "Hans Masibislokasie",
    "provinceName" : "Limpopo"
  },
  "-KlaQv9lvLxg9qP422O6" : {
    "cityID" : "-KlaQv9lvLxg9qP422O6",
    "countryID" : "-KTyxBZ1_tV4asRFzpy1",
    "date" : 0,
    "latitude" : -29.7,
    "longitude" : 29.716667,
    "name" : "Hansonia",
    "provinceName" : "KwaZulu Natal"
  },
  "-KlaQv9mlM5sQiRejG5T" : {
    "cityID" : "-KlaQv9mlM5sQiRejG5T",
    "countryID" : "-KTyxBZ1_tV4asRFzpy1",
    "date" : 0,
    "latitude" : -24.45,
    "longitude" : 28.35,
    "name" : "Hans se Kaalte",
    "provinceName" : "Limpopo"
  },
  "-KlaQv9nEgWuzX7aCPcK" : {
    "cityID" : "-KlaQv9nEgWuzX7aCPcK",
    "countryID" : "-KTyxBZ1_tV4asRFzpy1",
    "date" : 0,
    "latitude" : -32.854591,
    "longitude" : 28.07809,
    "name" : "Happy Home",
    "provinceName" : "Eastern Cape"
  },
  "-KlaQv9okyNNcLKf4nPz" : {
    "cityID" : "-KlaQv9okyNNcLKf4nPz",
    "countryID" : "-KTyxBZ1_tV4asRFzpy1",
    "date" : 0,
    "latitude" : -23.033333,
    "longitude" : 29.733333,
    "name" : "Happy Rest",
    "provinceName" : "Limpopo"
  },
  "-KlaQv9pCKotwAdm2LKz" : {
    "cityID" : "-KlaQv9pCKotwAdm2LKz",
    "countryID" : "-KTyxBZ1_tV4asRFzpy1",
    "date" : 0,
    "latitude" : -32.477756,
    "longitude" : 27.074449,
    "name" : "Happy Valley",
    "provinceName" : "Eastern Cape"
  },
  "-KlaQv9q9L6ipS2VqQ9l" : {
    "cityID" : "-KlaQv9q9L6ipS2VqQ9l",
    "countryID" : "-KTyxBZ1_tV4asRFzpy1",
    "date" : 0,
    "latitude" : -29.573955,
    "longitude" : 22.178562,
    "name" : "Happy Valley",
    "provinceName" : "Northern Cape"
  },
  "-KlaQv9rw-ivVMi1Wmfc" : {
    "cityID" : "-KlaQv9rw-ivVMi1Wmfc",
    "countryID" : "-KTyxBZ1_tV4asRFzpy1",
    "date" : 0,
    "latitude" : -33.933406,
    "longitude" : 20.074828,
    "name" : "Happy Valley",
    "provinceName" : "Western Cape"
  },
  "-KlaQv9sIJM3zZq81IW8" : {
    "cityID" : "-KlaQv9sIJM3zZq81IW8",
    "countryID" : "-KTyxBZ1_tV4asRFzpy1",
    "date" : 0,
    "latitude" : -30.613586,
    "longitude" : 28.468414,
    "name" : "Ha-Qhadi",
    "provinceName" : "Eastern Cape"
  },
  "-KlaQv9txt99rWNlOzei" : {
    "cityID" : "-KlaQv9txt99rWNlOzei",
    "countryID" : "-KTyxBZ1_tV4asRFzpy1",
    "date" : 0,
    "latitude" : -22.878584,
    "longitude" : 30.093927,
    "name" : "Ha-Rabali",
    "provinceName" : "Limpopo"
  },
  "-KlaQv9uNWCUJre2vC6A" : {
    "cityID" : "-KlaQv9uNWCUJre2vC6A",
    "countryID" : "-KTyxBZ1_tV4asRFzpy1",
    "date" : 0,
    "latitude" : -22.908299,
    "longitude" : 30.437232,
    "name" : "Ha-Radali",
    "provinceName" : "Limpopo"
  },
  "-KlaQv9vB59yu6N4saXp" : {
    "cityID" : "-KlaQv9vB59yu6N4saXp",
    "countryID" : "-KTyxBZ1_tV4asRFzpy1",
    "date" : 0,
    "latitude" : -23.106352,
    "longitude" : 29.763354,
    "name" : "Ha-Ramahantsha",
    "provinceName" : "Limpopo"
  },
  "-KlaQv9wEgc9RpSP8H_A" : {
    "cityID" : "-KlaQv9wEgc9RpSP8H_A",
    "countryID" : "-KTyxBZ1_tV4asRFzpy1",
    "date" : 0,
    "latitude" : -30.238564,
    "longitude" : 28.413374,
    "name" : "Ha-Ramarolong",
    "provinceName" : "Eastern Cape"
  },
  "-KlaQv9x7x5H0lfR0Pye" : {
    "cityID" : "-KlaQv9x7x5H0lfR0Pye",
    "countryID" : "-KTyxBZ1_tV4asRFzpy1",
    "date" : 0,
    "latitude" : -28.557022,
    "longitude" : 28.83464,
    "name" : "Ha-Rankopane",
    "provinceName" : "Free State"
  },
  "-KlaQv9y8bj66w373URY" : {
    "cityID" : "-KlaQv9y8bj66w373URY",
    "countryID" : "-KTyxBZ1_tV4asRFzpy1",
    "date" : 0,
    "latitude" : -29.150096,
    "longitude" : 26.922,
    "name" : "Harantsatsa",
    "provinceName" : "Free State"
  },
  "-KlaQv9zHX0qA1hzY4-X" : {
    "cityID" : "-KlaQv9zHX0qA1hzY4-X",
    "countryID" : "-KTyxBZ1_tV4asRFzpy1",
    "date" : 0,
    "latitude" : -29.410314,
    "longitude" : 30.736979,
    "name" : "Harburg",
    "provinceName" : "KwaZulu Natal"
  },
  "-KlaQvA-Sm4d0AckdWpR" : {
    "cityID" : "-KlaQvA-Sm4d0AckdWpR",
    "countryID" : "-KTyxBZ1_tV4asRFzpy1",
    "date" : 0,
    "latitude" : -31.166216,
    "longitude" : 28.476003,
    "name" : "Hardale",
    "provinceName" : "Eastern Cape"
  },
  "-KlaQvA02msgXdV1RVOy" : {
    "cityID" : "-KlaQvA02msgXdV1RVOy",
    "countryID" : "-KTyxBZ1_tV4asRFzpy1",
    "date" : 0,
    "latitude" : -23.524965,
    "longitude" : 27.215756,
    "name" : "Hardekraaltjie",
    "provinceName" : "Limpopo"
  },
  "-KlaQvA1mVzsT1fu_bNP" : {
    "cityID" : "-KlaQvA1mVzsT1fu_bNP",
    "countryID" : "-KTyxBZ1_tV4asRFzpy1",
    "date" : 0,
    "latitude" : -29.265009,
    "longitude" : 30.620493,
    "name" : "Harden Heights",
    "provinceName" : "KwaZulu Natal"
  },
  "-KlaQvA2wtfd4nNeG1Gw" : {
    "cityID" : "-KlaQvA2wtfd4nNeG1Gw",
    "countryID" : "-KTyxBZ1_tV4asRFzpy1",
    "date" : 0,
    "latitude" : -31.683333,
    "longitude" : 27.35,
    "name" : "Hardeveld",
    "provinceName" : "Eastern Cape"
  },
  "-KlaQvA3OdaD1AiT5T7O" : {
    "cityID" : "-KlaQvA3OdaD1AiT5T7O",
    "countryID" : "-KTyxBZ1_tV4asRFzpy1",
    "date" : 0,
    "latitude" : -30.576429,
    "longitude" : 29.884006,
    "name" : "Harding",
    "provinceName" : "KwaZulu Natal"
  },
  "-KlaQvA4KPYMDpMBfY1Q" : {
    "cityID" : "-KlaQvA4KPYMDpMBfY1Q",
    "countryID" : "-KTyxBZ1_tV4asRFzpy1",
    "date" : 0,
    "latitude" : -31.733333,
    "longitude" : 25.933333,
    "name" : "Hardop",
    "provinceName" : "Eastern Cape"
  },
  "-KlaQvA5AqRBVB1NKNnP" : {
    "cityID" : "-KlaQvA5AqRBVB1NKNnP",
    "countryID" : "-KTyxBZ1_tV4asRFzpy1",
    "date" : 0,
    "latitude" : -32.678884,
    "longitude" : 28.005673,
    "name" : "Harefield",
    "provinceName" : "Eastern Cape"
  },
  "-KlaQvA6tlPtLfmJAmgJ" : {
    "cityID" : "-KlaQvA6tlPtLfmJAmgJ",
    "countryID" : "-KTyxBZ1_tV4asRFzpy1",
    "date" : 0,
    "latitude" : -34.037076,
    "longitude" : 23.237533,
    "name" : "Harkerville",
    "provinceName" : "Western Cape"
  },
  "-KlaQvA7o1pQNaYWQ9U9" : {
    "cityID" : "-KlaQvA7o1pQNaYWQ9U9",
    "countryID" : "-KTyxBZ1_tV4asRFzpy1",
    "date" : 0,
    "latitude" : -27.555036,
    "longitude" : 27.643915,
    "name" : "Harmonie",
    "provinceName" : "Free State"
  },
  "-KlaQvA8IMieQRQzNbiq" : {
    "cityID" : "-KlaQvA8IMieQRQzNbiq",
    "countryID" : "-KTyxBZ1_tV4asRFzpy1",
    "date" : 0,
    "latitude" : -31.202501,
    "longitude" : 25.782556,
    "name" : "Harmonie",
    "provinceName" : "Eastern Cape"
  },
  "-KlaQvA9rK_rkjOPsbpb" : {
    "cityID" : "-KlaQvA9rK_rkjOPsbpb",
    "countryID" : "-KTyxBZ1_tV4asRFzpy1",
    "date" : 0,
    "latitude" : -23.803647,
    "longitude" : 28.894199,
    "name" : "Harmonie",
    "provinceName" : "Limpopo"
  },
  "-KlaQvAANpNW5yyD8JK8" : {
    "cityID" : "-KlaQvAANpNW5yyD8JK8",
    "countryID" : "-KTyxBZ1_tV4asRFzpy1",
    "date" : 0,
    "latitude" : -23.090435,
    "longitude" : 29.848545,
    "name" : "Harmony",
    "provinceName" : "Limpopo"
  },
  "-KlaQvABLJA20jRjT-y0" : {
    "cityID" : "-KlaQvABLJA20jRjT-y0",
    "countryID" : "-KTyxBZ1_tV4asRFzpy1",
    "date" : 0,
    "latitude" : -34.116667,
    "longitude" : 18.383333,
    "name" : "Harmony",
    "provinceName" : "Western Cape"
  },
  "-KlaQvACD2by_jQPQfby" : {
    "cityID" : "-KlaQvACD2by_jQPQfby",
    "countryID" : "-KTyxBZ1_tV4asRFzpy1",
    "date" : 0,
    "latitude" : -26.78636,
    "longitude" : 27.065584,
    "name" : "Harpington",
    "provinceName" : "North West"
  },
  "-KlaQvADhH5RY3vNjK0J" : {
    "cityID" : "-KlaQvADhH5RY3vNjK0J",
    "countryID" : "-KTyxBZ1_tV4asRFzpy1",
    "date" : 0,
    "latitude" : -28.272758,
    "longitude" : 29.129462,
    "name" : "Harrismith",
    "provinceName" : "Free State"
  },
  "-KlaQvAEsr8WmxSU8iNb" : {
    "cityID" : "-KlaQvAEsr8WmxSU8iNb",
    "countryID" : "-KTyxBZ1_tV4asRFzpy1",
    "date" : 0,
    "latitude" : -29.733333,
    "longitude" : 30.633333,
    "name" : "Harrison",
    "provinceName" : "KwaZulu Natal"
  },
  "-KlaQvAFdCHYYDiAZq9O" : {
    "cityID" : "-KlaQvAFdCHYYDiAZq9O",
    "countryID" : "-KTyxBZ1_tV4asRFzpy1",
    "date" : 0,
    "latitude" : -26.312629,
    "longitude" : 23.234459,
    "name" : "Harrow",
    "provinceName" : "North West"
  },
  "-KlaQvAGMJgzNaQ3inU-" : {
    "cityID" : "-KlaQvAGMJgzNaQ3inU-",
    "countryID" : "-KTyxBZ1_tV4asRFzpy1",
    "date" : 0,
    "latitude" : -24.49282,
    "longitude" : 27.418885,
    "name" : "Hartbeesbult",
    "provinceName" : "Limpopo"
  },
  "-KlaQvAHdpggxC4UDX00" : {
    "cityID" : "-KlaQvAHdpggxC4UDX00",
    "countryID" : "-KTyxBZ1_tV4asRFzpy1",
    "date" : 0,
    "latitude" : -30.14707,
    "longitude" : 26.14397,
    "name" : "Hartbeesfontein",
    "provinceName" : "Free State"
  },
  "-KlaQvAIQoK7xd-GCerL" : {
    "cityID" : "-KlaQvAIQoK7xd-GCerL",
    "countryID" : "-KTyxBZ1_tV4asRFzpy1",
    "date" : 0,
    "latitude" : -26.918545,
    "longitude" : 29.676599,
    "name" : "Hartbeesfontein",
    "provinceName" : "Mpumalanga"
  },
  "-KlaQvAJRP8dvD-A_2wQ" : {
    "cityID" : "-KlaQvAJRP8dvD-A_2wQ",
    "countryID" : "-KTyxBZ1_tV4asRFzpy1",
    "date" : 0,
    "latitude" : -26.765659,
    "longitude" : 26.420241,
    "name" : "Hartbeesfontein",
    "provinceName" : "North West"
  },
  "-KlaQvAKjNkeJ3JpDQiP" : {
    "cityID" : "-KlaQvAKjNkeJ3JpDQiP",
    "countryID" : "-KTyxBZ1_tV4asRFzpy1",
    "date" : 0,
    "latitude" : -31.3,
    "longitude" : 26.15,
    "name" : "Hartbeesnek",
    "provinceName" : "Eastern Cape"
  },
  "-KlaQvALNA654W9tZuNl" : {
    "cityID" : "-KlaQvALNA654W9tZuNl",
    "countryID" : "-KTyxBZ1_tV4asRFzpy1",
    "date" : 0,
    "latitude" : -25.733333,
    "longitude" : 27.85,
    "name" : "Hartbeespoort",
    "provinceName" : "North West"
  },
  "-KlaQvAMFi32XHPWTnBF" : {
    "cityID" : "-KlaQvAMFi32XHPWTnBF",
    "countryID" : "-KTyxBZ1_tV4asRFzpy1",
    "date" : 0,
    "latitude" : -24.484091,
    "longitude" : 27.736911,
    "name" : "Hartbeestfontein",
    "provinceName" : "Limpopo"
  },
  "-KlaQvAN13a7yNk4KOm6" : {
    "cityID" : "-KlaQvAN13a7yNk4KOm6",
    "countryID" : "-KTyxBZ1_tV4asRFzpy1",
    "date" : 0,
    "latitude" : -31.379367,
    "longitude" : 28.269888,
    "name" : "Hart Dale",
    "provinceName" : "Eastern Cape"
  },
  "-KlaQvAO0m353BeT9UFb" : {
    "cityID" : "-KlaQvAO0m353BeT9UFb",
    "countryID" : "-KTyxBZ1_tV4asRFzpy1",
    "date" : 0,
    "latitude" : -30.19654,
    "longitude" : 26.41281,
    "name" : "Hartebeesfontein",
    "provinceName" : "Free State"
  },
  "-KlaQvAQLgvCaj5eN0g-" : {
    "cityID" : "-KlaQvAQLgvCaj5eN0g-",
    "countryID" : "-KTyxBZ1_tV4asRFzpy1",
    "date" : 0,
    "latitude" : -31.633333,
    "longitude" : 26.166667,
    "name" : "Hartebeesfontein",
    "provinceName" : "Eastern Cape"
  },
  "-KlaQvAR_3RkFLx51L_5" : {
    "cityID" : "-KlaQvAR_3RkFLx51L_5",
    "countryID" : "-KTyxBZ1_tV4asRFzpy1",
    "date" : 0,
    "latitude" : -24.561515,
    "longitude" : 28.076197,
    "name" : "Hartebeesfontein",
    "provinceName" : "Limpopo"
  },
  "-KlaQvASsStsC-rDhLRU" : {
    "cityID" : "-KlaQvASsStsC-rDhLRU",
    "countryID" : "-KTyxBZ1_tV4asRFzpy1",
    "date" : 0,
    "latitude" : -26.889675,
    "longitude" : 26.806962,
    "name" : "Hartebeesfontein",
    "provinceName" : "North West"
  },
  "-KlaQvAT7O2Q0r-T8szV" : {
    "cityID" : "-KlaQvAT7O2Q0r-T8szV",
    "countryID" : "-KTyxBZ1_tV4asRFzpy1",
    "date" : 0,
    "latitude" : -26.183333,
    "longitude" : 30.933333,
    "name" : "Hartebeeskop",
    "provinceName" : "Mpumalanga"
  },
  "-KlaQvAU2S5349vzgoEZ" : {
    "cityID" : "-KlaQvAU2S5349vzgoEZ",
    "countryID" : "-KTyxBZ1_tV4asRFzpy1",
    "date" : 0,
    "latitude" : -33.767299,
    "longitude" : 19.003749,
    "name" : "Hartebeeskraal",
    "provinceName" : "Western Cape"
  },
  "-KlaQvAVtWy5qL1BuxUK" : {
    "cityID" : "-KlaQvAVtWy5qL1BuxUK",
    "countryID" : "-KTyxBZ1_tV4asRFzpy1",
    "date" : 0,
    "latitude" : -31.966667,
    "longitude" : 26.7,
    "name" : "Hartebeesnek",
    "provinceName" : "Eastern Cape"
  },
  "-KlaQvAWQOfExBS4Wcif" : {
    "cityID" : "-KlaQvAWQOfExBS4Wcif",
    "countryID" : "-KTyxBZ1_tV4asRFzpy1",
    "date" : 0,
    "latitude" : -24.514489,
    "longitude" : 28.084703,
    "name" : "Hartebeespoort",
    "provinceName" : "Limpopo"
  },
  "-KlaQvAXGL_mn59qcWXI" : {
    "cityID" : "-KlaQvAXGL_mn59qcWXI",
    "countryID" : "-KTyxBZ1_tV4asRFzpy1",
    "date" : 0,
    "latitude" : -34.366667,
    "longitude" : 19.516667,
    "name" : "Hartebeesrivier",
    "provinceName" : "Western Cape"
  },
  "-KlaQvAYW6_3XnY61eAc" : {
    "cityID" : "-KlaQvAYW6_3XnY61eAc",
    "countryID" : "-KTyxBZ1_tV4asRFzpy1",
    "date" : 0,
    "latitude" : -26.765659,
    "longitude" : 26.420241,
    "name" : "Hartebeestfontein",
    "provinceName" : "North West"
  },
  "-KlaQvAZyatkfo686lM-" : {
    "cityID" : "-KlaQvAZyatkfo686lM-",
    "countryID" : "-KTyxBZ1_tV4asRFzpy1",
    "date" : 0,
    "latitude" : -26.183333,
    "longitude" : 30.933333,
    "name" : "Hartebeestkop",
    "provinceName" : "Mpumalanga"
  },
  "-KlaQvA_CIFW2vxpzLzS" : {
    "cityID" : "-KlaQvA_CIFW2vxpzLzS",
    "countryID" : "-KTyxBZ1_tV4asRFzpy1",
    "date" : 0,
    "latitude" : -33.767299,
    "longitude" : 19.003749,
    "name" : "Hartebeestkraal",
    "provinceName" : "Western Cape"
  },
  "-KlaQvAaQ_uGpRvKp48i" : {
    "cityID" : "-KlaQvAaQ_uGpRvKp48i",
    "countryID" : "-KTyxBZ1_tV4asRFzpy1",
    "date" : 0,
    "latitude" : -25.733333,
    "longitude" : 27.85,
    "name" : "Hartebeestpoort",
    "provinceName" : "North West"
  },
  "-KlaQvAbpcTw-_owLvG_" : {
    "cityID" : "-KlaQvAbpcTw-_owLvG_",
    "countryID" : "-KTyxBZ1_tV4asRFzpy1",
    "date" : 0,
    "latitude" : -34.366667,
    "longitude" : 19.516667,
    "name" : "Hartebeest Rivier",
    "provinceName" : "Western Cape"
  },
  "-KlaQvAcWMs88H6AVQQj" : {
    "cityID" : "-KlaQvAcWMs88H6AVQQj",
    "countryID" : "-KTyxBZ1_tV4asRFzpy1",
    "date" : 0,
    "latitude" : -26.7,
    "longitude" : 30.15,
    "name" : "Hartebeestspruit",
    "provinceName" : "Mpumalanga"
  },
  "-KlaQvAdytQEF_0-U9Om" : {
    "cityID" : "-KlaQvAdytQEF_0-U9Om",
    "countryID" : "-KTyxBZ1_tV4asRFzpy1",
    "date" : 0,
    "latitude" : -28.75,
    "longitude" : 21.566667,
    "name" : "Hartebeest Vlakte",
    "provinceName" : "Northern Cape"
  },
  "-KlaQvAelMce3BwT63Om" : {
    "cityID" : "-KlaQvAelMce3BwT63Om",
    "countryID" : "-KTyxBZ1_tV4asRFzpy1",
    "date" : 0,
    "latitude" : -25.266667,
    "longitude" : 29.833333,
    "name" : "Hartelus",
    "provinceName" : "Mpumalanga"
  },
  "-KlaQvAfcU9p70sUh0N6" : {
    "cityID" : "-KlaQvAfcU9p70sUh0N6",
    "countryID" : "-KTyxBZ1_tV4asRFzpy1",
    "date" : 0,
    "latitude" : -34.130523,
    "longitude" : 22.112901,
    "name" : "Hartenbos",
    "provinceName" : "Western Cape"
  },
  "-KlaQvAgFLEoF-jXW8PU" : {
    "cityID" : "-KlaQvAgFLEoF-jXW8PU",
    "countryID" : "-KTyxBZ1_tV4asRFzpy1",
    "date" : 0,
    "latitude" : -29.9,
    "longitude" : 29.383333,
    "name" : "Hartlea",
    "provinceName" : "KwaZulu Natal"
  },
  "-KlaQvAhJwzEVyGY6xxM" : {
    "cityID" : "-KlaQvAhJwzEVyGY6xxM",
    "countryID" : "-KTyxBZ1_tV4asRFzpy1",
    "date" : 0,
    "latitude" : -31.379367,
    "longitude" : 28.269888,
    "name" : "Hartsdale",
    "provinceName" : "Eastern Cape"
  },
  "-KlaQvAiStUrQX9QUmjg" : {
    "cityID" : "-KlaQvAiStUrQX9QUmjg",
    "countryID" : "-KTyxBZ1_tV4asRFzpy1",
    "date" : 0,
    "latitude" : -26.397421,
    "longitude" : 27.956029,
    "name" : "Hartsenbergfontein",
    "provinceName" : "Gauteng"
  },
  "-KlaQvAjF_pTM5QM0QrB" : {
    "cityID" : "-KlaQvAjF_pTM5QM0QrB",
    "countryID" : "-KTyxBZ1_tV4asRFzpy1",
    "date" : 0,
    "latitude" : -26.8,
    "longitude" : 25.55,
    "name" : "Harts River",
    "provinceName" : "North West"
  },
  "-KlaQvAkWJueZsR8EPRD" : {
    "cityID" : "-KlaQvAkWJueZsR8EPRD",
    "countryID" : "-KTyxBZ1_tV4asRFzpy1",
    "date" : 0,
    "latitude" : -26.8,
    "longitude" : 25.55,
    "name" : "Hartsrivier",
    "provinceName" : "North West"
  },
  "-KlaQvAl0SWwV8fpgO7N" : {
    "cityID" : "-KlaQvAl0SWwV8fpgO7N",
    "countryID" : "-KTyxBZ1_tV4asRFzpy1",
    "date" : 0,
    "latitude" : -27.749639,
    "longitude" : 24.797115,
    "name" : "Hartswater",
    "provinceName" : "Northern Cape"
  },
  "-KlaQvAna2idh0pTgWAU" : {
    "cityID" : "-KlaQvAna2idh0pTgWAU",
    "countryID" : "-KTyxBZ1_tV4asRFzpy1",
    "date" : 0,
    "latitude" : -26.397421,
    "longitude" : 27.956029,
    "name" : "Hartzenbergfontein",
    "provinceName" : "Gauteng"
  },
  "-KlaQvAonZD9z2E-L5aW" : {
    "cityID" : "-KlaQvAonZD9z2E-L5aW",
    "countryID" : "-KTyxBZ1_tV4asRFzpy1",
    "date" : 0,
    "latitude" : -23.090954,
    "longitude" : 30.477819,
    "name" : "Hasana",
    "provinceName" : "Limpopo"
  },
  "-KlaQvAonZD9z2E-L5aX" : {
    "cityID" : "-KlaQvAonZD9z2E-L5aX",
    "countryID" : "-KTyxBZ1_tV4asRFzpy1",
    "date" : 0,
    "latitude" : -30.404078,
    "longitude" : 28.360523,
    "name" : "Ha-Sefoko",
    "provinceName" : "Eastern Cape"
  },
  "-KlaQvAp9VnK3m-sicDo" : {
    "cityID" : "-KlaQvAp9VnK3m-sicDo",
    "countryID" : "-KTyxBZ1_tV4asRFzpy1",
    "date" : 0,
    "latitude" : -30.454433,
    "longitude" : 28.516239,
    "name" : "Hasetati",
    "provinceName" : "Eastern Cape"
  },
  "-KlaQvAqHRaFAXqGn6Jo" : {
    "cityID" : "-KlaQvAqHRaFAXqGn6Jo",
    "countryID" : "-KTyxBZ1_tV4asRFzpy1",
    "date" : 0,
    "latitude" : -32.643075,
    "longitude" : 28.166121,
    "name" : "Hatchleydene",
    "provinceName" : "Eastern Cape"
  },
  "-KlaQvArSWC51mvbtodY" : {
    "cityID" : "-KlaQvArSWC51mvbtodY",
    "countryID" : "-KTyxBZ1_tV4asRFzpy1",
    "date" : 0,
    "latitude" : -32.643075,
    "longitude" : 28.166121,
    "name" : "Hatchley",
    "provinceName" : "Eastern Cape"
  },
  "-KlaQvAsKaEquKEYWBNi" : {
    "cityID" : "-KlaQvAsKaEquKEYWBNi",
    "countryID" : "-KTyxBZ1_tV4asRFzpy1",
    "date" : 0,
    "latitude" : -25.749728,
    "longitude" : 28.243141,
    "name" : "Hatfield",
    "provinceName" : "Gauteng"
  },
  "-KlaQvAuxU7SRDqojz_r" : {
    "cityID" : "-KlaQvAuxU7SRDqojz_r",
    "countryID" : "-KTyxBZ1_tV4asRFzpy1",
    "date" : 0,
    "latitude" : -25.733333,
    "longitude" : 28.366667,
    "name" : "Hatherley",
    "provinceName" : "Gauteng"
  },
  "-KlaQvAvDx-0C4wQhIZx" : {
    "cityID" : "-KlaQvAvDx-0C4wQhIZx",
    "countryID" : "-KTyxBZ1_tV4asRFzpy1",
    "date" : 0,
    "latitude" : -25.733333,
    "longitude" : 28.366667,
    "name" : "Hatherly",
    "provinceName" : "Gauteng"
  },
  "-KlaQvAwLAtoqSaeInhz" : {
    "cityID" : "-KlaQvAwLAtoqSaeInhz",
    "countryID" : "-KTyxBZ1_tV4asRFzpy1",
    "date" : 0,
    "latitude" : -30.240377,
    "longitude" : 28.435974,
    "name" : "Ha-Tlhakanelo",
    "provinceName" : "Eastern Cape"
  },
  "-KlaQvAx1g7dO8tHx4rM" : {
    "cityID" : "-KlaQvAx1g7dO8tHx4rM",
    "countryID" : "-KTyxBZ1_tV4asRFzpy1",
    "date" : 0,
    "latitude" : -28.079052,
    "longitude" : 30.125204,
    "name" : "Hattingspruit",
    "provinceName" : "KwaZulu Natal"
  },
  "-KlaQvAywfvzY1o9uIvA" : {
    "cityID" : "-KlaQvAywfvzY1o9uIvA",
    "countryID" : "-KTyxBZ1_tV4asRFzpy1",
    "date" : 0,
    "latitude" : -26.55,
    "longitude" : 26.283333,
    "name" : "Hauptsrus",
    "provinceName" : "North West"
  },
  "-KlaQvAzf4nvM_o8B9YA" : {
    "cityID" : "-KlaQvAzf4nvM_o8B9YA",
    "countryID" : "-KTyxBZ1_tV4asRFzpy1",
    "date" : 0,
    "latitude" : -26.55,
    "longitude" : 26.283333,
    "name" : "Hauptsrust",
    "provinceName" : "North West"
  },
  "-KlaQvB-RXumGq0lonre" : {
    "cityID" : "-KlaQvB-RXumGq0lonre",
    "countryID" : "-KTyxBZ1_tV4asRFzpy1",
    "date" : 0,
    "latitude" : -34.386345,
    "longitude" : 19.130989,
    "name" : "Hawston",
    "provinceName" : "Western Cape"
  },
  "-KlaQvB0u6AVq4YG79QV" : {
    "cityID" : "-KlaQvB0u6AVq4YG79QV",
    "countryID" : "-KTyxBZ1_tV4asRFzpy1",
    "date" : 0,
    "latitude" : -29.098734,
    "longitude" : 26.942266,
    "name" : "Hayfield",
    "provinceName" : "Free State"
  },
  "-KlaQvB1PSwXUYnqGYtC" : {
    "cityID" : "-KlaQvB1PSwXUYnqGYtC",
    "countryID" : "-KTyxBZ1_tV4asRFzpy1",
    "date" : 0,
    "latitude" : -29.616667,
    "longitude" : 30.416667,
    "name" : "Hay Paddock",
    "provinceName" : "KwaZulu Natal"
  },
  "-KlaQvB2uDTGi1QsyS6s" : {
    "cityID" : "-KlaQvB2uDTGi1QsyS6s",
    "countryID" : "-KTyxBZ1_tV4asRFzpy1",
    "date" : 0,
    "latitude" : -30.508197,
    "longitude" : 30.529343,
    "name" : "Hazeldene",
    "provinceName" : "KwaZulu Natal"
  },
  "-KlaQvB3kE_PJdeNmoTN" : {
    "cityID" : "-KlaQvB3kE_PJdeNmoTN",
    "countryID" : "-KTyxBZ1_tV4asRFzpy1",
    "date" : 0,
    "latitude" : -31.963123,
    "longitude" : 25.690542,
    "name" : "Hazeldene",
    "provinceName" : "Eastern Cape"
  },
  "-KlaQvB4XY4vKqMQ-iES" : {
    "cityID" : "-KlaQvB4XY4vKqMQ-iES",
    "countryID" : "-KTyxBZ1_tV4asRFzpy1",
    "date" : 0,
    "latitude" : -33.550528,
    "longitude" : 22.415381,
    "name" : "Hazenjacht",
    "provinceName" : "Western Cape"
  },
  "-KlaQvB5L4NSETNuXUcO" : {
    "cityID" : "-KlaQvB5L4NSETNuXUcO",
    "countryID" : "-KTyxBZ1_tV4asRFzpy1",
    "date" : 0,
    "latitude" : -25.043983,
    "longitude" : 31.12767,
    "name" : "Hazyview",
    "provinceName" : "Mpumalanga"
  },
  "-KlaQvB6qWA3iJx5p1XO" : {
    "cityID" : "-KlaQvB6qWA3iJx5p1XO",
    "countryID" : "-KTyxBZ1_tV4asRFzpy1",
    "date" : 0,
    "latitude" : -32.733333,
    "longitude" : 26.666667,
    "name" : "Healdton Fingo",
    "provinceName" : "Eastern Cape"
  },
  "-KlaQvB7vICE3gonUY0E" : {
    "cityID" : "-KlaQvB7vICE3gonUY0E",
    "countryID" : "-KTyxBZ1_tV4asRFzpy1",
    "date" : 0,
    "latitude" : -32.716667,
    "longitude" : 26.716667,
    "name" : "Healdtown",
    "provinceName" : "Eastern Cape"
  },
  "-KlaQvB8ks_ue9bRC7zu" : {
    "cityID" : "-KlaQvB8ks_ue9bRC7zu",
    "countryID" : "-KTyxBZ1_tV4asRFzpy1",
    "date" : 0,
    "latitude" : -26.083333,
    "longitude" : 28.333333,
    "name" : "Heather Bell",
    "provinceName" : "Gauteng"
  },
  "-KlaQvB9ttTCvRevdNMh" : {
    "cityID" : "-KlaQvB9ttTCvRevdNMh",
    "countryID" : "-KTyxBZ1_tV4asRFzpy1",
    "date" : 0,
    "latitude" : -33.949486,
    "longitude" : 22.442853,
    "name" : "Heatherlands",
    "provinceName" : "Western Cape"
  },
  "-KlaQvBA4h8Gewwatxx2" : {
    "cityID" : "-KlaQvBA4h8Gewwatxx2",
    "countryID" : "-KTyxBZ1_tV4asRFzpy1",
    "date" : 0,
    "latitude" : -31.846545,
    "longitude" : 26.003817,
    "name" : "Heathfield",
    "provinceName" : "Eastern Cape"
  },
  "-KlaQvBBPIFG2t72e7OU" : {
    "cityID" : "-KlaQvBBPIFG2t72e7OU",
    "countryID" : "-KTyxBZ1_tV4asRFzpy1",
    "date" : 0,
    "latitude" : -34.047645,
    "longitude" : 18.46808,
    "name" : "Heathfield",
    "provinceName" : "Western Cape"
  },
  "-KlaQvBCW-yTzCer1rWa" : {
    "cityID" : "-KlaQvBCW-yTzCer1rWa",
    "countryID" : "-KTyxBZ1_tV4asRFzpy1",
    "date" : 0,
    "latitude" : -25.944668,
    "longitude" : 25.39108,
    "name" : "Heathview",
    "provinceName" : "North West"
  },
  "-KlaQvBDXib8EmiUQt0Q" : {
    "cityID" : "-KlaQvBDXib8EmiUQt0Q",
    "countryID" : "-KTyxBZ1_tV4asRFzpy1",
    "date" : 0,
    "latitude" : -28.661941,
    "longitude" : 31.785615,
    "name" : "Heatonville",
    "provinceName" : "KwaZulu Natal"
  },
  "-KlaQvBEWKXDIqJOg3ev" : {
    "cityID" : "-KlaQvBEWKXDIqJOg3ev",
    "countryID" : "-KTyxBZ1_tV4asRFzpy1",
    "date" : 0,
    "latitude" : -27.456445,
    "longitude" : 24.737857,
    "name" : "Heavyrest Mission",
    "provinceName" : "North West"
  },
  "-KlaQvBFXvQyIR7rYbEG" : {
    "cityID" : "-KlaQvBFXvQyIR7rYbEG",
    "countryID" : "-KTyxBZ1_tV4asRFzpy1",
    "date" : 0,
    "latitude" : -32.236075,
    "longitude" : 27.830299,
    "name" : "Hebehebe",
    "provinceName" : "Eastern Cape"
  },
  "-KlaQvBG1nReEPr_XNf5" : {
    "cityID" : "-KlaQvBG1nReEPr_XNf5",
    "countryID" : "-KTyxBZ1_tV4asRFzpy1",
    "date" : 0,
    "latitude" : -29.001927,
    "longitude" : 25.962277,
    "name" : "Hebron",
    "provinceName" : "Free State"
  },
  "-KlaQvBHgNYmFCUNOhCw" : {
    "cityID" : "-KlaQvBHgNYmFCUNOhCw",
    "countryID" : "-KTyxBZ1_tV4asRFzpy1",
    "date" : 0,
    "latitude" : -30.675327,
    "longitude" : 26.436019,
    "name" : "Hebron",
    "provinceName" : "Eastern Cape"
  },
  "-KlaQvBIbIOdMmRuhWEc" : {
    "cityID" : "-KlaQvBIbIOdMmRuhWEc",
    "countryID" : "-KTyxBZ1_tV4asRFzpy1",
    "date" : 0,
    "latitude" : -25.550242,
    "longitude" : 28.022796,
    "name" : "Hebron",
    "provinceName" : "North West"
  },
  "-KlaQvBJ9V_Hq2OZ3rbz" : {
    "cityID" : "-KlaQvBJ9V_Hq2OZ3rbz",
    "countryID" : "-KTyxBZ1_tV4asRFzpy1",
    "date" : 0,
    "latitude" : -32.450664,
    "longitude" : 27.538772,
    "name" : "Heckel",
    "provinceName" : "Eastern Cape"
  },
  "-KlaQvBK7NbV87BTsdx_" : {
    "cityID" : "-KlaQvBK7NbV87BTsdx_",
    "countryID" : "-KTyxBZ1_tV4asRFzpy1",
    "date" : 0,
    "latitude" : -25.441146,
    "longitude" : 31.68382,
    "name" : "Hectorspruit",
    "provinceName" : "Mpumalanga"
  },
  "-KlaQvBLWWCD5Rqf-7xY" : {
    "cityID" : "-KlaQvBLWWCD5Rqf-7xY",
    "countryID" : "-KTyxBZ1_tV4asRFzpy1",
    "date" : 0,
    "latitude" : -29.680453,
    "longitude" : 21.550517,
    "name" : "Hedley Plains",
    "provinceName" : "Northern Cape"
  },
  "-KlaQvBMPQXWKFE1nwnW" : {
    "cityID" : "-KlaQvBMPQXWKFE1nwnW",
    "countryID" : "-KTyxBZ1_tV4asRFzpy1",
    "date" : 0,
    "latitude" : -29.555184,
    "longitude" : 26.551272,
    "name" : "Heelfontein",
    "provinceName" : "Free State"
  },
  "-KlaQvBN3HiFaWXWzfeN" : {
    "cityID" : "-KlaQvBN3HiFaWXWzfeN",
    "countryID" : "-KTyxBZ1_tV4asRFzpy1",
    "date" : 0,
    "latitude" : -30.1,
    "longitude" : 27.3,
    "name" : "Heelgoed",
    "provinceName" : "Free State"
  },
  "-KlaQvBOV5UhLkNuJqkb" : {
    "cityID" : "-KlaQvBOV5UhLkNuJqkb",
    "countryID" : "-KTyxBZ1_tV4asRFzpy1",
    "date" : 0,
    "latitude" : -29.017867,
    "longitude" : 26.182685,
    "name" : "Heeltevrede",
    "provinceName" : "Free State"
  },
  "-KlaQvBPIQZIwjOEu3ez" : {
    "cityID" : "-KlaQvBPIQZIwjOEu3ez",
    "countryID" : "-KTyxBZ1_tV4asRFzpy1",
    "date" : 0,
    "latitude" : -26.504759,
    "longitude" : 28.359214,
    "name" : "Heidelberg",
    "provinceName" : "Gauteng"
  },
  "-KlaQvBPIQZIwjOEu3f-" : {
    "cityID" : "-KlaQvBPIQZIwjOEu3f-",
    "countryID" : "-KTyxBZ1_tV4asRFzpy1",
    "date" : 0,
    "latitude" : -34.091267,
    "longitude" : 20.956611,
    "name" : "Heidelberg",
    "provinceName" : "Western Cape"
  },
  "-KlaQvBQ2oJvmUAIbPj4" : {
    "cityID" : "-KlaQvBQ2oJvmUAIbPj4",
    "countryID" : "-KTyxBZ1_tV4asRFzpy1",
    "date" : 0,
    "latitude" : -26.504759,
    "longitude" : 28.359214,
    "name" : "Heidelburg",
    "provinceName" : "Gauteng"
  },
  "-KlaQvBSWxKI0e7PXsiK" : {
    "cityID" : "-KlaQvBSWxKI0e7PXsiK",
    "countryID" : "-KTyxBZ1_tV4asRFzpy1",
    "date" : 0,
    "latitude" : -33.964769,
    "longitude" : 18.548435,
    "name" : "Heideveld",
    "provinceName" : "Western Cape"
  },
  "-KlaQvBTwumisKlM3pQ1" : {
    "cityID" : "-KlaQvBTwumisKlM3pQ1",
    "countryID" : "-KTyxBZ1_tV4asRFzpy1",
    "date" : 0,
    "latitude" : -33.854513,
    "longitude" : 23.976492,
    "name" : "Heights",
    "provinceName" : "Eastern Cape"
  },
  "-KlaQvBUbNAYJ22G74SU" : {
    "cityID" : "-KlaQvBUbNAYJ22G74SU",
    "countryID" : "-KTyxBZ1_tV4asRFzpy1",
    "date" : 0,
    "latitude" : -27.281154,
    "longitude" : 27.970901,
    "name" : "Heilbron",
    "provinceName" : "Free State"
  },
  "-KlaQvBVCyxd8eZ1nwe4" : {
    "cityID" : "-KlaQvBVCyxd8eZ1nwe4",
    "countryID" : "-KTyxBZ1_tV4asRFzpy1",
    "date" : 0,
    "latitude" : -31.695219,
    "longitude" : 26.06337,
    "name" : "Heilbron",
    "provinceName" : "Eastern Cape"
  },
  "-KlaQvBWCAoqmNhBV3L6" : {
    "cityID" : "-KlaQvBWCAoqmNhBV3L6",
    "countryID" : "-KTyxBZ1_tV4asRFzpy1",
    "date" : 0,
    "latitude" : -27.296651,
    "longitude" : 23.828334,
    "name" : "Heiso",
    "provinceName" : "North West"
  },
  "-KlaQvBX7HRpMSKGx0Io" : {
    "cityID" : "-KlaQvBX7HRpMSKGx0Io",
    "countryID" : "-KTyxBZ1_tV4asRFzpy1",
    "date" : 0,
    "latitude" : -25.882235,
    "longitude" : 27.61654,
    "name" : "Hekpoort",
    "provinceName" : "Gauteng"
  },
  "-KlaQvBYAoy4lL_ku6tc" : {
    "cityID" : "-KlaQvBYAoy4lL_ku6tc",
    "countryID" : "-KTyxBZ1_tV4asRFzpy1",
    "date" : 0,
    "latitude" : -23.778107,
    "longitude" : 29.974441,
    "name" : "Hekpoort",
    "provinceName" : "Limpopo"
  },
  "-KlaQvBZiYazUVeOmdfE" : {
    "cityID" : "-KlaQvBZiYazUVeOmdfE",
    "countryID" : "-KTyxBZ1_tV4asRFzpy1",
    "date" : 0,
    "latitude" : -29.908307,
    "longitude" : 30.097036,
    "name" : "Hela Hela",
    "provinceName" : "KwaZulu Natal"
  },
  "-KlaQvB_oYsAZcosx05g" : {
    "cityID" : "-KlaQvB_oYsAZcosx05g",
    "countryID" : "-KTyxBZ1_tV4asRFzpy1",
    "date" : 0,
    "latitude" : -26.837306,
    "longitude" : 27.843526,
    "name" : "Zamdela",
    "provinceName" : "Free State"
  },
  "-KlaQvBcMX_39NL4vtWV" : {
    "cityID" : "-KlaQvBcMX_39NL4vtWV",
    "countryID" : "-KTyxBZ1_tV4asRFzpy1",
    "date" : 0,
    "latitude" : -24.983333,
    "longitude" : 29.033333,
    "name" : "Zamenkomst",
    "provinceName" : "Mpumalanga"
  },
  "-KlaQvBdHKV1K8d51_V-" : {
    "cityID" : "-KlaQvBdHKV1K8d51_V-",
    "countryID" : "-KTyxBZ1_tV4asRFzpy1",
    "date" : 0,
    "latitude" : -27.994763,
    "longitude" : 31.986663,
    "name" : "Zamokwake",
    "provinceName" : "KwaZulu Natal"
  },
  "-KlaQvBeX7DIxpEYCRt9" : {
    "cityID" : "-KlaQvBeX7DIxpEYCRt9",
    "countryID" : "-KTyxBZ1_tV4asRFzpy1",
    "date" : 0,
    "latitude" : -31.834049,
    "longitude" : 28.858755,
    "name" : "Zanci",
    "provinceName" : "Eastern Cape"
  },
  "-KlaQvBfp3xZZNCL-2u-" : {
    "cityID" : "-KlaQvBfp3xZZNCL-2u-",
    "countryID" : "-KTyxBZ1_tV4asRFzpy1",
    "date" : 0,
    "latitude" : -29.616564,
    "longitude" : 21.104566,
    "name" : "Zandbergshoop",
    "provinceName" : "Northern Cape"
  },
  "-KlaQvBgJMNBfHqtIS89" : {
    "cityID" : "-KlaQvBgJMNBfHqtIS89",
    "countryID" : "-KTyxBZ1_tV4asRFzpy1",
    "date" : 0,
    "latitude" : -23.683333,
    "longitude" : 27.25,
    "name" : "Zandbult",
    "provinceName" : "Limpopo"
  },
  "-KlaQvBhi3nDFFnFhVhn" : {
    "cityID" : "-KlaQvBhi3nDFFnFhVhn",
    "countryID" : "-KTyxBZ1_tV4asRFzpy1",
    "date" : 0,
    "latitude" : -27.841501,
    "longitude" : 28.788046,
    "name" : "Zanddraai",
    "provinceName" : "Free State"
  },
  "-KlaQvBiPeTwvjqQa25n" : {
    "cityID" : "-KlaQvBiPeTwvjqQa25n",
    "countryID" : "-KTyxBZ1_tV4asRFzpy1",
    "date" : 0,
    "latitude" : -31.374506,
    "longitude" : 26.202694,
    "name" : "Zandfontein",
    "provinceName" : "Eastern Cape"
  },
  "-KlaQvBjL0M8FnYhJpha" : {
    "cityID" : "-KlaQvBjL0M8FnYhJpha",
    "countryID" : "-KTyxBZ1_tV4asRFzpy1",
    "date" : 0,
    "latitude" : -23.728268,
    "longitude" : 29.121947,
    "name" : "Zandfontein",
    "provinceName" : "Limpopo"
  },
  "-KlaQvBkjwaHiKnNr76T" : {
    "cityID" : "-KlaQvBkjwaHiKnNr76T",
    "countryID" : "-KTyxBZ1_tV4asRFzpy1",
    "date" : 0,
    "latitude" : -33.266667,
    "longitude" : 24.016667,
    "name" : "Zandkraalpoort",
    "provinceName" : "Eastern Cape"
  },
  "-KlaQvBm7UPpA_u0z-HY" : {
    "cityID" : "-KlaQvBm7UPpA_u0z-HY",
    "countryID" : "-KTyxBZ1_tV4asRFzpy1",
    "date" : 0,
    "latitude" : -33.266667,
    "longitude" : 24.016667,
    "name" : "Zandkraalspoort",
    "provinceName" : "Eastern Cape"
  },
  "-KlaQvBnJEZpjdvw_qdq" : {
    "cityID" : "-KlaQvBnJEZpjdvw_qdq",
    "countryID" : "-KTyxBZ1_tV4asRFzpy1",
    "date" : 0,
    "latitude" : -33.151437,
    "longitude" : 20.023664,
    "name" : "Zand Rivier",
    "provinceName" : "Western Cape"
  },
  "-KlaQvBo0vMzqP84PLK2" : {
    "cityID" : "-KlaQvBo0vMzqP84PLK2",
    "countryID" : "-KTyxBZ1_tV4asRFzpy1",
    "date" : 0,
    "latitude" : -31.380062,
    "longitude" : 28.838693,
    "name" : "Zandukwane",
    "provinceName" : "Eastern Cape"
  },
  "-KlaQvBqeteG3yben-u7" : {
    "cityID" : "-KlaQvBqeteG3yben-u7",
    "countryID" : "-KTyxBZ1_tV4asRFzpy1",
    "date" : 0,
    "latitude" : -33.581871,
    "longitude" : 24.16594,
    "name" : "Zandvlakte",
    "provinceName" : "Eastern Cape"
  },
  "-KlaQvBruAZnU2Z_yUBn" : {
    "cityID" : "-KlaQvBruAZnU2Z_yUBn",
    "countryID" : "-KTyxBZ1_tV4asRFzpy1",
    "date" : 0,
    "latitude" : -30.63181,
    "longitude" : 21.981082,
    "name" : "Zandvlei",
    "provinceName" : "Northern Cape"
  },
  "-KlaQvBsFX6lv29PmTKk" : {
    "cityID" : "-KlaQvBsFX6lv29PmTKk",
    "countryID" : "-KTyxBZ1_tV4asRFzpy1",
    "date" : 0,
    "latitude" : -31.144793,
    "longitude" : 29.933558,
    "name" : "Zangontshi",
    "provinceName" : "Eastern Cape"
  },
  "-KlaQvBtDtTL1raqaDwh" : {
    "cityID" : "-KlaQvBtDtTL1raqaDwh",
    "countryID" : "-KTyxBZ1_tV4asRFzpy1",
    "date" : 0,
    "latitude" : -31.144793,
    "longitude" : 29.933558,
    "name" : "Zangotsho",
    "provinceName" : "Eastern Cape"
  },
  "-KlaQvBuVzXh-SOOHUta" : {
    "cityID" : "-KlaQvBuVzXh-SOOHUta",
    "countryID" : "-KTyxBZ1_tV4asRFzpy1",
    "date" : 0,
    "latitude" : -32.075324,
    "longitude" : 26.574481,
    "name" : "Zangqokwe",
    "provinceName" : "Eastern Cape"
  },
  "-KlaQvBv9DzrWUaFo7PO" : {
    "cityID" : "-KlaQvBv9DzrWUaFo7PO",
    "countryID" : "-KTyxBZ1_tV4asRFzpy1",
    "date" : 0,
    "latitude" : -32.427574,
    "longitude" : 28.035784,
    "name" : "Zangwa",
    "provinceName" : "Eastern Cape"
  },
  "-KlaQvBw2uUG17HdMYjA" : {
    "cityID" : "-KlaQvBw2uUG17HdMYjA",
    "countryID" : "-KTyxBZ1_tV4asRFzpy1",
    "date" : 0,
    "latitude" : -32.766667,
    "longitude" : 27.1,
    "name" : "Zanyokwe",
    "provinceName" : "Eastern Cape"
  },
  "-KlaQvBxUcy5EYQUZJg7" : {
    "cityID" : "-KlaQvBxUcy5EYQUZJg7",
    "countryID" : "-KTyxBZ1_tV4asRFzpy1",
    "date" : 0,
    "latitude" : -27.15,
    "longitude" : 23.4,
    "name" : "Zaphiri",
    "provinceName" : "North West"
  },
  "-KlaQvByHGxhie4Q7auD" : {
    "cityID" : "-KlaQvByHGxhie4Q7auD",
    "countryID" : "-KTyxBZ1_tV4asRFzpy1",
    "date" : 0,
    "latitude" : -30.302249,
    "longitude" : 27.083951,
    "name" : "Zastron",
    "provinceName" : "Free State"
  },
  "-KlaQvBzIWOH7dmtDYFg" : {
    "cityID" : "-KlaQvBzIWOH7dmtDYFg",
    "countryID" : "-KTyxBZ1_tV4asRFzpy1",
    "date" : 0,
    "latitude" : -32.283333,
    "longitude" : 28.15,
    "name" : "Zazulwana Skool",
    "provinceName" : "Eastern Cape"
  },
  "-KlaQvC-I0xKZ5hwhq1D" : {
    "cityID" : "-KlaQvC-I0xKZ5hwhq1D",
    "countryID" : "-KTyxBZ1_tV4asRFzpy1",
    "date" : 0,
    "latitude" : -32.283333,
    "longitude" : 28.15,
    "name" : "Zazulwana",
    "provinceName" : "Eastern Cape"
  },
  "-KlaQvC0GnxmSE4sV_14" : {
    "cityID" : "-KlaQvC0GnxmSE4sV_14",
    "countryID" : "-KTyxBZ1_tV4asRFzpy1",
    "date" : 0,
    "latitude" : -24.3,
    "longitude" : 29.25,
    "name" : "Zebediela Estates",
    "provinceName" : "Limpopo"
  },
  "-KlaQvC2hBVaDcQTkdNo" : {
    "cityID" : "-KlaQvC2hBVaDcQTkdNo",
    "countryID" : "-KTyxBZ1_tV4asRFzpy1",
    "date" : 0,
    "latitude" : -24.416667,
    "longitude" : 29.383333,
    "name" : "Zebedielas Location",
    "provinceName" : "Limpopo"
  },
  "-KlaQvC3IwSJRhRpKtLl" : {
    "cityID" : "-KlaQvC3IwSJRhRpKtLl",
    "countryID" : "-KTyxBZ1_tV4asRFzpy1",
    "date" : 0,
    "latitude" : -24.298378,
    "longitude" : 29.25147,
    "name" : "Zebediela",
    "provinceName" : "Limpopo"
  },
  "-KlaQvC4VZrekO30gXUi" : {
    "cityID" : "-KlaQvC4VZrekO30gXUi",
    "countryID" : "-KTyxBZ1_tV4asRFzpy1",
    "date" : 0,
    "latitude" : -33.763701,
    "longitude" : 22.315524,
    "name" : "Zebra",
    "provinceName" : "Western Cape"
  },
  "-KlaQvC5v_lwDUoPdO7i" : {
    "cityID" : "-KlaQvC5v_lwDUoPdO7i",
    "countryID" : "-KTyxBZ1_tV4asRFzpy1",
    "date" : 0,
    "latitude" : -30.367163,
    "longitude" : 26.884615,
    "name" : "Zeekoegat",
    "provinceName" : "Free State"
  },
  "-KlaQvC6fmmjVVPret7X" : {
    "cityID" : "-KlaQvC6fmmjVVPret7X",
    "countryID" : "-KTyxBZ1_tV4asRFzpy1",
    "date" : 0,
    "latitude" : -29.45,
    "longitude" : 30.45,
    "name" : "Zeekogat",
    "provinceName" : "KwaZulu Natal"
  },
  "-KlaQvC7j5VLzKBwna1Z" : {
    "cityID" : "-KlaQvC7j5VLzKBwna1Z",
    "countryID" : "-KTyxBZ1_tV4asRFzpy1",
    "date" : 0,
    "latitude" : -25.536951,
    "longitude" : 26.075117,
    "name" : "Zeerust",
    "provinceName" : "North West"
  },
  "-KlaQvC8CWT9xpJabcGH" : {
    "cityID" : "-KlaQvC8CWT9xpJabcGH",
    "countryID" : "-KTyxBZ1_tV4asRFzpy1",
    "date" : 0,
    "latitude" : -23.1,
    "longitude" : 29.45,
    "name" : "Zending",
    "provinceName" : "Limpopo"
  },
  "-KlaQvC9Xd_HWNOOOwJn" : {
    "cityID" : "-KlaQvC9Xd_HWNOOOwJn",
    "countryID" : "-KTyxBZ1_tV4asRFzpy1",
    "date" : 0,
    "latitude" : -26.082507,
    "longitude" : 28.367682,
    "name" : "Zesfontein",
    "provinceName" : "Gauteng"
  },
  "-KlaQvCArrhoOeUIkZlg" : {
    "cityID" : "-KlaQvCArrhoOeUIkZlg",
    "countryID" : "-KTyxBZ1_tV4asRFzpy1",
    "date" : 0,
    "latitude" : -30.516667,
    "longitude" : 26.833333,
    "name" : "Zevenjaarsfontein",
    "provinceName" : "Free State"
  },
  "-KlaQvCC8HoUZjNIhXvV" : {
    "cityID" : "-KlaQvCC8HoUZjNIhXvV",
    "countryID" : "-KTyxBZ1_tV4asRFzpy1",
    "date" : 0,
    "latitude" : -33.231547,
    "longitude" : 27.476486,
    "name" : "Zhikova",
    "provinceName" : "Eastern Cape"
  },
  "-KlaQvCDNlFhy8wxln-1" : {
    "cityID" : "-KlaQvCDNlFhy8wxln-1",
    "countryID" : "-KTyxBZ1_tV4asRFzpy1",
    "date" : 0,
    "latitude" : -32.733333,
    "longitude" : 26.983333,
    "name" : "Zibi's",
    "provinceName" : "Eastern Cape"
  },
  "-KlaQvCE_lGGW2_oTKQZ" : {
    "cityID" : "-KlaQvCE_lGGW2_oTKQZ",
    "countryID" : "-KTyxBZ1_tV4asRFzpy1",
    "date" : 0,
    "latitude" : -30.99452,
    "longitude" : 29.707741,
    "name" : "Zibukweni",
    "provinceName" : "Eastern Cape"
  },
  "-KlaQvCF83IKeFuBUFzO" : {
    "cityID" : "-KlaQvCF83IKeFuBUFzO",
    "countryID" : "-KTyxBZ1_tV4asRFzpy1",
    "date" : 0,
    "latitude" : -31.471575,
    "longitude" : 29.214067,
    "name" : "Zibungu",
    "provinceName" : "Eastern Cape"
  },
  "-KlaQvCGBql5TN-eZMAx" : {
    "cityID" : "-KlaQvCGBql5TN-eZMAx",
    "countryID" : "-KTyxBZ1_tV4asRFzpy1",
    "date" : 0,
    "latitude" : -31.990847,
    "longitude" : 29.03103,
    "name" : "Zidindi",
    "provinceName" : "Eastern Cape"
  },